district,keyword,name,address,rating,reviews,place_id,lat,lng
松山區,美甲,Mai甲時刻.studio,10565台灣臺北市松山區八德路四段301號,4.9,203.0,ChIJP3xQbcmrQjQR3Gu1KoKNyCM,25.0492205,121.566538
松山區,美甲,米妃特國際美甲美睫,105台灣臺北市松山區民生東路三段110巷6號,4.9,1315.0,ChIJy6vqDvKrQjQRK5I7WkqtUaY,25.056960000000004,121.54469089999999
松山區,美甲,Midolian nails & lashs米朶莉恩美甲美睫店（有深夜及早上美甲美睫服務）,105台灣臺北市松山區興安街188號2樓,5.0,223.0,ChIJ7V0Ng8-rQjQRdRYJ_PW5Z4Q,25.055970799999997,121.5451701
松山區,美甲,Kiera Beauty,105065台灣臺北市松山區民生東路五段55號1樓,4.9,336.0,ChIJU0lHEn2rQjQRl3gnBjgxJJ0,25.0586046,121.55774029999998
松山區,美甲,MG Nail Salon／MG美甲,10589台灣臺北市松山區民生東路五段197號2樓,4.9,158.0,ChIJ-ZSEXaqrQjQR0e7xUBb86Lo,25.0593693,121.56619599999999
松山區,美甲,ANNY NAIL BAR 美甲沙龍,105台灣臺北市松山區延壽街330巷12號,4.8,59.0,ChIJvbPaM5OrQjQRKJ371bTR5ik,25.055655299999998,121.56014760000001
松山區,美甲,shh.studio_｜曦光美學｜南京三民美甲｜日式無痛除毛｜談心系美甲師,105台灣臺北市松山區南京東路五段83號3樓,5.0,119.0,ChIJScMoOeOrQjQRpQv8pQcZSPA,25.0517,121.56
松山區,美甲,in house 好事美甲,105台灣臺北市松山區南京東路五段250巷9之5號,4.9,126.0,ChIJizIJEXOrQjQRZtXZVhVo7U8,25.049953799999997,121.56570389999999
松山區,美甲,Lalaland Salon/美甲保養沙龍,"2樓, No. 186號民生東路五段松山區臺北市台灣 10589",4.7,114.0,ChIJHdw9z2arQjQRILrWIzK_kPw,25.058439,121.56377499999999
松山區,美甲,Ya ting art nail school 美甲沙龍培訓室,105台灣臺北市松山區南京東路三段303巷6弄9號3樓,4.9,66.0,ChIJMa9IV2OrQjQRftsx7WVp6W4,25.052587799999998,121.54724999999999
松山區,美甲,美妍甲Love nail salon美甲-醫院卸甲-美睫-紋繡,"1樓, PA美髮內No. 594號松山路信義區臺北市台灣 110",5.0,229.0,ChIJ60v3JBSrQjQRciTU_SqrfsA,25.0365956,121.57832959999999
松山區,美甲,CindyYao nail藝術美甲.熱蠟除毛(近南京三民站,105台灣台北市松山區南京东路五段286巷6號1樓,5.0,34.0,ChIJ8bN1RMyrQjQRjGlrozkhEeE,25.0503824,121.56712809999999
松山區,美甲,Yunhe Nail 昀和美甲,105台灣臺北市松山區新東街41巷6號,5.0,86.0,ChIJEZ3gMQCrQjQRnE6tn5r_jLg,25.060838800000003,121.56514569999999
松山區,美甲,指上芭蕾美甲- Ballet_ nail【南京三民站】可自行+官方預約｜美甲｜凝膠彩繪｜指甲彩繪|美甲凝膠｜手部造型｜指甲保養護理｜熱蠟除毛｜孕婦除毛,10564台灣臺北市松山區南京東路五段83號,4.9,63.0,ChIJBxwaCS-rQjQRT5ZtvKbWkss,25.0517,121.56
松山區,美甲,Angie's,105072台灣臺北市松山區三民路136巷7號1樓,5.0,125.0,ChIJ1WQ6LSGrQjQRKsIVsTWR39s,25.06064,121.5637674
松山區,美甲,安玖指彩 N9 nails｜台北松山區小巨蛋捷運美甲店｜光療凝膠款式推薦｜指甲彩繪教學｜手足保養卸甲｜ネイル,105台灣台北市松山區八德路三段121-1號號 B1,4.8,190.0,ChIJ2fSCicGrQjQR3P8Qoz5a98k,25.0482804,121.55427730000001
松山區,美甲,Ginny美甲紋繡Nail/BeautySalon,10582台灣臺北市松山區三民路91號2樓,5.0,69.0,ChIJAxpnkOKrQjQRA_qE-BFMPhE,25.0570602,121.56345619999999
松山區,美甲,花心工作室 Blossomy Heart,105台灣臺北市松山區南京東路四段133巷6弄36號1樓,5.0,280.0,ChIJ23FSBTCrQjQRh8qfh_HGtDQ,25.0528561,121.5538739
松山區,美甲,JN_nail松山小巨蛋美甲｜工作室,10595台灣臺北市松山區南京東路四段75號4樓,4.9,47.0,ChIJyU9N-Y2pQjQR6APp8q4L9Jk,25.051857,121.5534551
松山區,美甲,Sisters nail salon #美甲#男士修甲#嵌（凍）甲矯正,105台灣臺北市松山區敦化北路120巷78號,4.9,33.0,ChIJ3Vq0reerQjQRJafwWIuCX2E,25.054166600000002,121.5463923
松山區,美甲,LIN美甲美睫 -松山(美甲，美睫，接睫毛，日式除毛，彩妝推薦，嵌甲矯正，紋繡),105台灣臺北市松山區八德路四段687之1號號1樓,4.8,22.0,ChIJoTIbMz2rQjQRzH_85W8I34k,25.0504205,121.5763008
松山區,美甲,Uppish Nail Studio,105台灣臺北市松山區南京東路五段2號3樓（301室,4.8,30.0,ChIJbeswx5SrQjQRBQcc-5QRqJE,25.0513163,121.5582063
松山區,美甲,Pinky Nail 藝術美甲（手足保養.凝膠美甲.指甲彩繪.崁甲矯正.凍甲修整.台北美甲.南京三民）,105台灣臺北市松山區南京東路五段212號8樓之4,5.0,180.0,ChIJh4JvUkKrQjQRqGNy5HptrB4,25.0511973,121.56520900000001
松山區,美甲,KMnails可美美甲/美睫/紋繡/教學,105台灣臺北市松山區南京東路四段52巷4號1樓A室,4.9,101.0,ChIJt25R8AurQjQR2JS3XvC1HFc,25.050960300000003,121.55352169999999
松山區,美甲,Liliblue Nail Salon,105台灣臺北市松山區延壽街333-1號,5.0,65.0,ChIJz35WueOrQjQRWBkmMK67c04,25.056817,121.56006199999999
松山區,美甲,Star nails 時尚美甲美睫,105台灣臺北市松山區南京東路四段51號1樓之一,4.8,124.0,ChIJ84R3SuirQjQRFjHwU50gF9s,25.052025999999998,121.55104089999999
松山區,美甲,睫熙女孩美甲美睫,110台灣臺北市信義區松山路225巷38號1樓,5.0,113.0,ChIJK6Tey6SrQjQRoR0IeJVmbso,25.044695899999997,121.57872499999999
松山區,美甲,Lin Lin nail琳琳日式美甲美睫 | 松山/南京三民/小巨蛋/南京復興 美甲美睫 專業霧眉 半永久紋繡 紋眉推薦,105台灣台北市松山區复兴北路15號5F之一（514室,5.0,72.0,ChIJF9nhdb2rQjQRGTeREhfRN0o,25.0486251,121.54427030000001
松山區,美甲,玉梅美甲工作室（預約制）,105台灣臺北市松山區南京東路五段251巷1號1樓,5.0,67.0,ChIJZ-BfPAerQjQRs3-z9Yb4mUM,25.0520846,121.5651406
松山區,美甲,美甲女王BELLA藝術奇幻之旅,105台灣臺北市松山區復興北路15號六樓之一 (614B室,5.0,87.0,ChIJ4RelcuarQjQRcR7SVtsXpgU,25.0486251,121.54427030000001
松山區,美甲,23 NAIL STUDIO 貳參美甲,105057台灣臺北市松山區八德路四段640號1樓,4.6,19.0,ChIJqRglkcSrQjQRDMYZBy37ug4,25.0498241,121.5747799
松山區,美甲,飛舞時尚美學｜美甲/美睫/睫毛管理/紋繡/霧眉/化妝/造型/角蛋白,105台灣台北市松山區南京东路五段163-9號1樓,4.7,97.0,ChIJ2-pVLYerQjQR5F_s_PO6NQo,25.0520201,121.5625085
松山區,美甲,亮麗美甲,105台灣臺北市松山區南京東路五段123巷8弄1號號之3,4.7,40.0,ChIJzzT2CnerQjQRNbEWjTRSn8c,25.053518099999998,121.560779
松山區,美甲,H Nail Salon,105台灣臺北市松山區新中街6巷17號,4.9,22.0,ChIJJx5QmJKrQjQROJRShQU4QoY,25.0584252,121.56134189999999
松山區,美甲,Weiss Nails薇媤美甲概念館,110台灣臺北市信義區松隆路205-1號,5.0,14.0,ChIJ9WoW8QCrQjQRfLb7AoTe0kc,25.0485272,121.57628509999998
松山區,美甲,Me & You Nails • 迷有指甲,105台灣臺北市松山區南京東路五段212號,5.0,37.0,ChIJY8LwbxarQjQR_ypnzdDIszU,25.051148299999998,121.56518
松山區,美甲,［ｈｉｂｉ］ｎａｉｌ日々美甲,105041台灣臺北市松山區復興南路一段63號12號樓之2,5.0,80.0,ChIJwYqjnKSrQjQRoYu462KqMLc,25.0450789,121.54412099999998
松山區,美甲,瀅如美甲&美睫,105台灣臺北市松山區八德路四段699之2號,4.4,110.0,ChIJXRXqJpSrQjQRFu-Q7TNg618,25.0502152,121.57662189999999
松山區,美甲,LILY F beauty 美甲/美睫/紋繡,10565台灣臺北市松山區八德路四段350號,5.0,64.0,ChIJkXB7SjyrQjQRnmrrsjWmyiQ,25.049139399999998,121.5685555
松山區,美甲,Cosy•舒心美甲-台北松山美甲｜凝膠指甲、手足保養,105台灣臺北市松山區健康路325巷19弄42號1樓,4.9,33.0,ChIJhSHN3iCrQjQRe55VNHW9fs4,25.0561865,121.56557809999998
松山區,美甲,美麗佳人時尚美甲 修甲 光療,105台灣臺北市松山區南京東路四段133巷8弄1號,5.0,16.0,ChIJu_2gTMmrQjQRA8naabfX8Rk,25.053036499999997,121.5550698
松山區,美甲,Bess Nails蓓絲美甲,"1樓, No. 3-2號永吉路225巷信義區臺北市台灣 110",5.0,47.0,ChIJdbV_pb6rQjQRs-_54AbODto,25.046366199999998,121.57434889999999
松山區,美甲,伊閣YIGE 民生店 美睫 美甲 紋繡,105065台灣臺北市松山區民生東路五段228號1樓,4.9,89.0,ChIJ0wWm1OOrQjQRxoUhttDX96k,25.0588943,121.5656829
松山區,美甲,Yu溫 美甲｜美睫｜美容｜手工清粉刺,105台灣台北市松山區八德路四段765號2號樓之132樓之13,4.9,17.0,ChIJT-QiGUarQjQRg_JroWExORU,25.0511832,121.5779596
松山區,美甲,vva nails salon 維維安美甲個人工作室,105台灣臺北市松山區慶城街14-2號1樓髮廊內vivian個人工作室,5.0,15.0,ChIJL6n7c-erQjQRlB2-IBOHgZ0,25.0530948,121.545219
松山區,美甲,Tonglin*科技體雕*美學空間,105台灣台北市松山區南京东路五段286巷6號1樓,5.0,98.0,ChIJiybsZlKrQjQRXfZSqaSF684,25.0503824,121.56712809999999
松山區,美甲,指茗美｜美甲｜霧眉｜霧唇｜眼線｜臉部保養｜,10552台灣臺北市松山區八德路二段437巷1弄2號指茗美,5.0,49.0,ChIJBR_cVU2rQjQRDT3HFlSFfM0,25.0486678,121.54691489999999
松山區,美甲,Metis米堤絲-台北市松山區/接睫毛/無痛除毛/熱蠟除毛/凝膠美甲/手足保養,105台灣臺北市松山區南京東路五段286巷6號,4.6,28.0,ChIJFYbZpt2pQjQRVYQhgf4gNac,25.0503824,121.56712809999999
松山區,美甲,HOHO NAIL 美甲沙龍松山八德分店,105台灣臺北市松山區八德路三段12巷5弄17號,4.5,58.0,ChIJIQ-F50qrQjQRvxJuzRvg3cY,25.047753099999998,121.55127449999999
松山區,美甲,Miss Beauty 南港美甲 南港手足保養 南港光療凝膠 後山埤美甲 信義區美甲 松山美甲 五分埔美甲 五分埔手足保養,115台灣臺北市南港區中坡北路60巷2號1號樓第2室,4.8,63.0,ChIJu5jXTp6rQjQR5Pu0cuXHXZA,25.0468332,121.58084120000001
松山區,美甲,winspa 複合式沙龍中心,105台灣台北市松山區八德路四段91巷11號1樓,5.0,172.0,ChIJD9vO3pSrQjQRG7s_8HbNGyY,25.049429699999997,121.5606974
松山區,美甲,S’aimer 仙迷美學小巨蛋店｜美甲・美睫・紋繡・熱蠟除毛,105台灣臺北市松山區南京東路四段53巷3弄2號號1樓,4.9,71.0,ChIJ84R3SuirQjQR1ZTiVhCpnI4,25.0523863,121.5510393
松山區,美甲,卡羅麗仕指甲沙龍 Coloris nail salon(光療美甲),105台灣臺北市松山區南京東路三段303巷7弄1號,4.5,32.0,ChIJe2E1keerQjQRfbsAyN4mjSs,25.052628499999997,121.546661
松山區,美甲,YC美甲美睫紋綉沙龍｜信義1店｜項目可同時操作｜足保養推薦深層｜1樓店面,11084台灣臺北市信義區松山路465巷23號1樓,5.0,764.0,ChIJHWjru-GrQjQRQZ1wOZIcHas,25.039956000000004,121.57894899999998
松山區,美甲,How about Design? 美甲工作室,105台灣臺北市松山區松隆路215巷4弄9號,5.0,2.0,ChIJc1ojq5irQjQRXGlLuMUQV-M,25.0487346,121.57682319999999
松山區,美甲,艾蜜莉美甲 · 美睫,105台灣臺北市松山區南京東路五段291巷6弄3號,5.0,3.0,ChIJxW8EIrqrQjQR_09rZ4Kk3bA,25.052021099999997,121.5658479
松山區,美甲,Lilisa美甲-美睫-紋繡,105台灣臺北市松山區敦化北路4巷37號,5.0,13.0,ChIJhesgpQerQjQRI0N01VvXHgQ,25.050093500000003,121.5451042
松山區,美甲,Hestia nails 赫司緹雅國際時尚美甲,105台灣臺北市松山區復興南路一段63號8樓之2,4.2,63.0,ChIJGWGBPNqrQjQRgOBK470k-D8,25.0450789,121.54412099999998
松山區,美甲,盈僖美學❤︎專業美甲美睫｜信義區美甲美睫｜松山區美甲美睫,110台灣台北市信义区基隆路一段155號8樓之6,5.0,51.0,ChIJtwk3P-erQjQRAvFvxmNvm5U,25.0422742,121.56547039999998
松山區,美甲,E.M Nails Art,105台灣臺北市松山區南京東路三段335巷17號2樓,5.0,24.0,ChIJa6NRSyCrQjQRFzZSg-t1rpw,25.0531054,121.5475135
松山區,美睫,Feza EyeSalon,"1樓, No. 3號南京東路三段256巷20弄松山區臺北市台灣 105",4.9,969.0,ChIJ4UpSvd2rQjQRbIVZOF629SM,25.050822999999998,121.54483400000001
松山區,美睫,Smiley Lash 笑臉睫毛| 接睫毛 美睫教學 美睫專門店,105台灣台北市松山區南京东路五段212號8號樓之4,4.9,218.0,ChIJyz1nH1yrQjQRwWCOhLntpZM,25.0510947,121.5651942
松山區,美睫,Ce lash 日式美睫 - Cecilia,105台灣臺北市松山區復興南路一段63號8樓,5.0,13.0,ChIJ2fbQW7WrQjQRhHif8dtwwas,25.0451522,121.5440729
松山區,美睫,美娜朵-美睫睫毛紋繡【客製化睫毛/嫁接睫毛/睫毛管理/紋綉】,10597台灣臺北市松山區南京東路五段163號2樓之7,5.0,174.0,ChIJMbdi9x-rQjQRlQcE0eNb5ds,25.051653100000003,121.5626901
松山區,美睫,三目衫婕 眉藝美睫設計 | 松山區美睫紋繡 | 南京三民捷運站3號出口旁《美睫 / 霧眉•飄眉•野生眉•修眉•洗眉•洗眼線•除色 / 隱形內眼線•妝感眼線 / 繡唇》,105台灣台北市松山區南京东路五段212號8號樓之4,5.0,116.0,ChIJh-oVUUurQjQRs5CPYn8VZe8,25.051197400000003,121.56519809999999
松山區,美睫,Lala拉拉專業美睫-松山店,105台灣臺北市松山區八德路四段295巷18弄10號,4.6,18.0,ChIJCXhw5LarQjQRe38MK0gPmK8,25.0494316,121.5659198
松山區,美睫,Yuribeautysalon美睫霧眉飄眉,110台灣臺北市信義區松山路437號2樓,5.0,145.0,ChIJTfRRKVSrQjQRfcnWlGJL5qU,25.040237800000003,121.57806000000001
松山區,美睫,Yiki beauty 專業熱蠟除毛/冰肌微光除毛/皮膚管理/睫眉管理/美甲/豐傑生醫特約商店,105台灣臺北市松山區南京東路五段250巷2弄16-1號1樓,5.0,113.0,ChIJxVTFzgOrQjQRD8W5lAPl4AA,25.0506754,121.56685669999999
松山區,美睫,With U Studio 松山區 接睫毛｜清粉刺｜霧眉推薦｜南京復興熱蠟除毛｜角蛋白美睫｜做臉推薦,105台灣臺北市松山區長安東路二段219號10F,5.0,116.0,ChIJtUtQ8UGrQjQRZDJVANUlg9M,25.0483461,121.5448756
松山區,美睫,Shao eyelash,105台灣台北市松山區八德路四段604-16號1樓,5.0,325.0,ChIJ1Qj6vJOrQjQRT6wjNRbZ4YU,25.049700899999998,121.5727809
松山區,美睫,睫戀 Matsuge Koi,"號11樓, No. 50南京東路四段松山區臺北市台灣 105",4.9,39.0,ChIJD4Tq87urQjQRYTtsvIpXyfM,25.0514457,121.553431
松山區,美睫,夏妮美學Shani Beauty 美睫 紋綉 熱蠟 角蛋白,105台灣臺北市松山區復興南路一段57號,4.9,96.0,ChIJYUt8x9urQjQRlvztWzmyHQk,25.0452469,121.544125
松山區,美睫,芯亮睫Eyes beauty美睫/手作霧眉,105台灣臺北市松山區復興南路一段57號,5.0,15.0,ChIJrxFRVGqrQjQRvjQNE90_UnU,25.0452469,121.544125
松山區,美睫,Pei Pei Lash .tw 美睫/霧眉,105台灣臺北市松山區復興南路一段47巷11號,4.6,73.0,ChIJ6xGqglupQjQRhy8tOYerifw,25.0453965,121.5446941
松山區,美睫,MY焦糖女孩 - #美睫 #霧眉 #造型,10561台灣臺北市松山區八德路四段235號2樓,5.0,36.0,ChIJGxD40dCrQjQRkneNIacqI2M,25.0490501,121.5646508
松山區,美睫,Love It愛上美學坊｜霧眉｜野生眉｜歐式霧唇｜美瞳線｜美睫嫁接｜專業霧眉教學/美甲美睫,10571台灣臺北市松山區南京東路五段81號3樓,5.0,22.0,ChIJ_2hO_1CpQjQRQJKQ-vihDWo,25.051706199999998,121.5599374
松山區,美睫,椿睫 Tsubaki Studio 美睫&霧眉專門 ︎睫毛教學所,105台灣臺北市松山區八德路二段437巷1弄2號,5.0,6.0,ChIJcZPqFoOrQjQR1p8NTxCOoPM,25.048587599999998,121.54692159999999
松山區,美睫,朵粒絲設計工作室 DORIS Salon,105台灣臺北市松山區民生東路三段113巷25弄21號1樓,5.0,101.0,ChIJ-ZtM1W-rQjQRE9XHUBdLUBo,25.059725399999998,121.54663059999999
松山區,美睫,Abby lash salon 美學｜美睫｜角蛋白俏睫術｜仙霧眉｜美瞳妝感眼線,105台灣臺北市松山區慶城街14-2號,5.0,11.0,ChIJkbKAdCurQjQReH73737dwDY,25.0530948,121.545219
松山區,美睫,星河 美學美睫 美甲 美容,105台灣臺北市松山區南京東路五段19-1號二樓,4.6,32.0,ChIJvWl1Rx-rQjQRasjGUHuzx6Q,25.051852,121.5577977
松山區,美睫,POLA Malee Spa｜美顏美體｜美睫嫁接｜眉眼唇紋綉｜預約制,105台灣臺北市松山區光復北路36號,4.9,60.0,ChIJn6w6g-qrQjQRqEqYSKLa3cA,25.049444400000002,121.5576699
松山區,美睫,睦蓉JAJA 造型工作室-松山霧眉 紋繡 粉霧眉 專業推薦 男士霧眉 開運眉 眉毛安全除色 推薦 改壞眉橘眉 刺青紋唇眼線除色 角蛋白美睫 職業彩妝教學 廣告平面 尾牙 舞台劇彩妝造型 個人造型 新娘秘書 髮際線/育髮/健髮/強健髮根,105台灣臺北市松山區長安東路二段215號五樓之3A,5.0,87.0,ChIJjb06tfCrQjQRqDPRlHoGcHA,25.0484092,121.54452339999999
松山區,美睫,東區美睫,106台灣臺北市大安區11樓 No. 155號忠孝東路四段,4.7,48.0,ChIJKSwhFcWrQjQRFpDEoDOHBmg,25.0417426,121.5500104
松山區,美睫,FAMINI BEAUTY 美睫美甲紋繡,104台灣臺北市中山區朱崙街91號3樓,4.8,55.0,ChIJMX1vDcmrQjQRV8Qvu1jcyK0,25.0499966,121.5435486
松山區,美睫,Lulume.eyelash 南京三民美睫｜日式單根,105台灣臺北市松山區南京東路五段143號,5.0,10.0,ChIJvxDZTACrQjQRFaYAVYtZ5x8,25.051711899999997,121.561779
松山區,美睫,J Queen 睫皇后 愛美時尚 美睫工作室 - 東區美睫 頂好 SOGO商圈 微風廣場 接睫毛 植睫毛 補睫毛 卸睫毛 [ Charming美學館 內 ],105台灣臺北市松山區復興南路一段43號2樓,4.7,15.0,ChIJXT2eD9urQjQROcx7cAJShcU,25.0457213,121.5440906
松山區,美睫,芙蘿拉美睫spa屋,105台灣臺北市松山區南京東路五段336號7樓之三,5.0,3.0,ChIJV9ZGt8GrQjQROgpXVoTRlB0,25.0510803,121.5689381
松山區,美睫,MARUMARU 接睫毛・日式自然美睫專門店​,106台灣臺北市大安區光復南路308巷43號,4.9,288.0,ChIJPfzrosirQjQRTtzEHLNE3FU,25.038828100000003,121.5558699
松山區,美睫,Miss luxurious 美睫,105台灣臺北市松山區復興南路一段57號 8號樓-1,5.0,45.0,ChIJg2rBSjyrQjQRjIdjbR8L-h8,25.0452469,121.544125
松山區,美睫,GULUBEAUTY 男女熱蠟除毛｜日式美睫,105台灣臺北市松山區光復北路85巷1號2樓,5.0,31.0,ChIJ5xl4766rQjQRakQqDO3hSUI,25.050602899999998,121.558346
松山區,髮廊,沐/潤,105台灣臺北市松山區八德路四段245巷18-1號,4.7,343.0,ChIJHe82z5WrQjQR0pl_uZdePp8,25.0496204,121.56451839999998
松山區,髮廊,Hootailnqua Hair Salon,105台灣臺北市松山區富錦街411號1樓,4.7,338.0,ChIJ-cusO42rQjQRQiewNhOZCB0,25.0608725,121.5606796
松山區,髮廊,2021 hair salon貳零貳壹-台北松山剪髮/燙髮/染髮 美髮/沙龍/髮廊 2026髮型設計師推薦 頭皮護理/護髮/髮根燙/熱塑燙/水霧感染/層次剪/羊毛捲/男士壓貼燙 日系 專業價格好評推薦 PTT Dcard,105台灣臺北市松山區民生東路五段137巷4弄37號1樓,4.9,243.0,ChIJCeAKlmirQjQRiO7DDKoqfYM,25.0599475,121.56299000000001
松山區,髮廊,MK HAIR SALON 松山區美髮沙龍｜美髮沙龍｜松山髮廊 專業護髮 頭皮護理,105台灣臺北市松山區八德路四段245巷52弄50號1樓,4.9,96.0,ChIJU5MUKv9o1YsRgPwlG6BCITA,25.0502693,121.56308000000001
松山區,髮廊,松山髮廊,11061台灣臺北市信義區松山路312號之1號,5.0,51.0,ChIJp2IUjierQjQRqlGP53C5H0c,25.042506,121.57761500000001
松山區,髮廊,HUGH hair studio| 台北髮廊|紋理燙|韓系髮型|霧感修護染髮|特殊色漂染|覺亞頭皮養護|哥德式結構修護|黑曜光系統修護|京喚羽系統修護|官方line預約,105台灣臺北市松山區新東街11巷5號1樓,4.9,216.0,ChIJf5iSWL-rQjQRORq5u5t9pw8,25.0582706,121.5657717
松山區,髮廊,SUN HAIR SAlON,105台灣臺北市松山區延吉街42號一樓,4.9,346.0,ChIJpzoH5cOrQjQRHwdT1LN4Vf0,25.0456328,121.55357719999999
松山區,髮廊,台北松山區Relax hair日系美髮沙龍,105台灣臺北市松山區民生東路四段75巷3號,4.5,119.0,ChIJ2yi3Ae-rQjQRCLgp2r2sTNI,25.058429999999998,121.55119529999999
松山區,髮廊,AT5國際髮型,105台灣臺北市松山區八德路四段263號1樓,4.7,276.0,ChIJ30Z168GrQjQRro3EOTwGzBI,25.049108,121.56529979999999
松山區,髮廊,ZOHAN SALON柔漢沙龍,"165號, No. 165南京東路五段松山區臺北市台灣 105",4.9,234.0,ChIJ0ZLL0UWrQjQRFL0EPGYsqrc,25.051668799999998,121.56289419999999
松山區,髮廊,日期髮藝空間Date Hair Space,105台灣臺北市松山區八德路三段142號1樓,4.7,231.0,ChIJJ00LH9GrQjQRtJralwbauyk,25.048005399999997,121.5546812
松山區,髮廊,KOMM HAIR 小巨蛋店,105台灣臺北市松山區南京東路四段158巷8號,4.8,1034.0,ChIJWW036PKrQjQR_sWK6yDLAMY,25.050778299999998,121.5565417
松山區,髮廊,汎亞髮藝,105台灣台北市松山區南京东路五段123巷2弄9號1樓,4.9,286.0,ChIJAwH86JSrQjQRJK7zMDQQQX4,25.0521891,121.56128740000001
松山區,髮廊,HAPPYHAIR 台北松山店,110台灣臺北市信義區松山路283號,4.8,575.0,ChIJuUup7KGrQjQRiLtVMDYNaUk,25.043063999999998,121.578006
松山區,髮廊,Dx hair salon台北京華旗艦店,105台灣臺北市松山區八德路四段210號,4.8,134.0,ChIJcwFG6pWrQjQRlrUjtKweVig,25.0486683,121.5644075
松山區,髮廊,PEACE HAIR 髮廊,105台灣臺北市松山區南京東路五段291巷32號之 二,4.9,71.0,ChIJMWYrUpGrQjQRKeu0kzST-84,25.0527913,121.56608390000001
松山區,髮廊,朋hair salon,105台灣臺北市松山區八德路三段155巷12弄1之1號,4.9,172.0,ChIJ-c6KZLOrQjQRC4LaDySG4RE,25.0489833,121.5551608
松山區,髮廊,民生社區EZsalon/松山區髮廊,105台灣臺北市松山區民生東路五段228號1樓,4.7,113.0,ChIJRVYhCo6rQjQRohxYySiFb-M,25.0588943,121.5656829
松山區,髮廊,LY Hair Salon,105台灣臺北市松山區民生東路五段22號,4.9,556.0,ChIJL3w0K-6rQjQR1uiCRe0Rqwk,25.0582137,121.55640689999998
松山區,髮廊,C ' Hair (美髮沙龍）,105台灣臺北市松山區八德路三段158巷20弄17號,5.0,267.0,ChIJ9xJteMGrQjQRAt1-RZnUqwo,25.0471456,121.5547574
松山區,髮廊,沐沐mumu salon,105台灣臺北市松山區敦化北路120巷54之1號,4.9,194.0,ChIJNX1SD8GrQjQRVL2EZ6KqmZY,25.054099899999997,121.54653699999999
松山區,髮廊,KOMM HAIR 微風店,105台灣台北市松山區敦化北路145巷33號1樓,4.7,475.0,ChIJa7B1U-SrQjQRfp0Yf-rKKhg,25.053708,121.55067430000001
松山區,髮廊,欣奇髮藝,105台灣台北市松山區三民路107巷5號之3號1樓,5.0,209.0,ChIJjYyAR_2rQjQR_ElzY903j-E,25.0577243,121.5632323
松山區,髮廊,初 True Hair Salon,105台灣臺北市松山區八德路二段437巷2弄2號,4.9,100.0,ChIJ7Wzm4NyrQjQReEjeNeyvILE,25.0488715,121.5468593
松山區,髮廊,Spring hair salon(松山店),105台灣臺北市松山區八德路四段717號2樓,4.7,218.0,ChIJMZ7a4purQjQR49Qm0_rttp8,25.0501537,121.5770848
松山區,髮廊,KAFKA hair salon 卡夫卡髮型沙龍,105台灣臺北市松山區南京東路五段250巷18弄8號1樓,4.9,46.0,ChIJY64dFIGrQjQRbWEGK9CtPIQ,25.0500948,121.566492
松山區,髮廊,Oppa korea hairsalon,105台灣臺北市松山區南京東路四段133巷4弄27號1樓,4.6,398.0,ChIJ6SkM1r-rQjQRlRBs_JcirG8,25.0521781,121.5541615
松山區,髮廊,Le Quartier Chic hair salon,105台灣臺北市松山區民生東路四段75巷8號,4.9,97.0,ChIJLWA7Ve6rQjQR_L299Jj4d7Q,25.0587132,121.55133010000002
松山區,髮廊,Remak 髮型工作室,105台灣臺北市松山區南京東路五段83號2樓,4.8,166.0,ChIJ7bkS05SrQjQRXDMg2sp1oIo,25.0516999,121.5599999
松山區,髮廊,DUCA salon,105台灣臺北市松山區民生東路三段130巷36號,4.9,158.0,ChIJ4UZ3ZuarQjQRs291qRafofo,25.0561835,121.54611120000001
松山區,髮廊,POSH Hair Salon - 松山染髮．燙髮．頭皮護理,105台灣臺北市松山區富錦街386號1樓,4.8,275.0,ChIJFVPKTo2rQjQRKHCJmyb1UZI,25.0604729,121.55944889999998
松山區,髮廊,只想洗髮「松山饒河」夜間洗髮,105台灣臺北市松山區八德路四段669號2樓,5.0,118.0,ChIJZw_sn2GrQjQRrA9ybmqybq0,25.050180100000002,121.5758725
松山區,髮廊,KLATCH hair salon南京店,"12之1號, 南京東路五段250巷2弄松山區臺北市台灣 105",5.0,2490.0,ChIJO2rzx9arQjQRP1RTs0jsK1M,25.0506313,121.56654080000001
松山區,髮廊,HAPPYHAIR 台北育德店,105台灣臺北市松山區八德路三段156號2樓,4.9,529.0,ChIJl0_ZkcGrQjQRvO8XQvjYlcU,25.0480253,121.55478219999999
松山區,髮廊,Manor Salon 莊園髮型台北,10547台灣臺北市松山區慶城街48號,4.9,94.0,ChIJcbOdR-arQjQRetdD5Nzipg8,25.0551577,121.5469311
松山區,髮廊,Canalast Barbershop 運河通男士理髮 | 台北小巨蛋店 (English-Friendly),105台灣臺北市松山區八德路三段199巷1弄3號,4.9,587.0,ChIJAbQRUxGrQjQRUXg8tvRFejo,25.0486003,121.55644629999998
松山區,髮廊,勝悅髮型頭皮養護館 東京店,105台灣臺北市松山區南京東路四段115號1樓,4.9,1128.0,ChIJvyAXMOqrQjQRmrMupyd0gQA,25.051867599999998,121.5549605
松山區,髮廊,Legacy Salon 傳成設計沙龍,11084台灣臺北市信義區松山路517號2樓,5.0,41.0,ChIJ39y21j2rQjQRfeKiktKMeg4,25.038422699999998,121.57819140000001
松山區,髮廊,HAPPYHAIR 台北文華店,105台灣臺北市松山區興安街151號,4.7,495.0,ChIJyyuDjOarQjQRLvYzwTOZOD0,25.0561689,121.54531769999998
松山區,髮廊,頂意美髮沙龍,105台灣臺北市松山區南京東路五段123巷1弄25號,4.8,141.0,ChIJYXRtKHOrQjQRy4FOsJV0lgY,25.0522067,121.55952590000001
松山區,髮廊,海華氏美髮沙龍,105台灣臺北市松山區南京東路五段123巷15號 號2 樓,5.0,64.0,ChIJ6YZ5x5SrQjQRikI6FawS6EA,25.052430899999997,121.56073809999998
松山區,髮廊,SUN HAIR SALON,105台灣臺北市松山區延吉街12號2樓,4.8,161.0,ChIJ6wxmMP-rQjQRKkS-7I0pnfE,25.0470863,121.55339640000001
松山區,髮廊,炫婇造型沙龍,105台灣臺北市松山區三民路113巷15之1號,4.7,330.0,ChIJmUrlsY6rQjQRNnG7sraAxpQ,25.057830199999998,121.56262519999999
松山區,髮廊,饒河夜市尚洋髮藝饒河店,"樓號, No. 37號2饒河街松山區臺北市台灣 105",4.2,109.0,ChIJK9Qa7JmrQjQR-peAaPJE19Y,25.0501622,121.5724922
松山區,髮廊,FANN 梵沙龍會館／頭皮養護／燙髮／染髮／剪髮-松山頭皮護理|染髮推薦|專業染髮|專業剪髮|頭皮養護|頭皮保養|外泌體健髮|推薦外泌體保養,10562台灣臺北市松山區光復南路66巷19號1樓,5.0,91.0,ChIJ24lvKWqrQjQR42VpRjcpcu8,25.045171999999997,121.55666049999998
松山區,髮廊,勝悅髮型頭皮養護館 漢城店,105台灣臺北市松山區南京東路五段58號1樓,4.7,234.0,ChIJ242b15SrQjQRdYIpH3Ql19s,25.051282,121.56051099999998
松山區,髮廊,小林髮廊-總督店（洗髮僅現場候位）,105台灣臺北市松山區敦化北路4巷43號1樓,4.6,146.0,ChIJyUmRRDerQjQRRDcFRQcK-_M,25.0500743,121.544943
松山區,髮廊,京崎髮藝 沙龍,105台灣台北市松山區南京东路五段250巷2弄10號1樓,4.4,68.0,ChIJUTHjkJarQjQRsdlq3DLWKSs,25.0506363,121.56640610000001
松山區,髮廊,YOURS HAIR|兒童剪髮|成人剪染燙｜松山區|小巨蛋站,"1樓, No. 4號八德路三段12巷7弄松山區臺北市台灣 10559",5.0,277.0,ChIJHVzqs6WrQjQRajPInvTTmHk,25.0469816,121.55085009999999
松山區,髮廊,HAPPYHAIR 台北民生店,105台灣台北市松山區民生东路五段138巷3號2樓,4.5,199.0,ChIJJ9n8m5KrQjQRT3WCZG88l4I,25.0584629,121.56163389999999
松山區,髮廊,NYCB慶城店 美髮沙龍｜剪染燙髮｜卡詩指定沙龍｜頭皮護理｜京喚羽｜台北松山 南京復興,105台灣臺北市松山區慶城街14-2號,4.9,612.0,ChIJ374EdOerQjQRSjzY6Fz5Lwk,25.053119199999998,121.54523400000001
松山區,髮廊,JUST IN HAIR 南京民生館,105台灣臺北市松山區三民路113巷20號5樓,5.0,220.0,ChIJmfpLgfCrQjQR_TGPFaN5osk,25.058004,121.5622387
松山區,髮廊,Top Hair Salon 蕾琦髮藝,105台灣臺北市松山區光復北路103巷34號1樓,4.7,50.0,ChIJPcnR0eqrQjQRLi2fHajF3BI,25.0508974,121.55953640000001
松山區,髮廊,TheBund Hair Salon(十里洋),10570台灣臺北市松山區東興路21號,4.7,127.0,ChIJ4cdxf5arQjQR5LDMyETH5Lk,25.049737999999998,121.565601
松山區,髮廊,曼都髮型(信星店）,105台灣臺北市松山區新中街31號,4.7,237.0,ChIJZ5UyVo2rQjQR8v-Jp37QNbg,25.059191600000002,121.560386
松山區,髮廊,世紀男子剪髮,105台灣台北市松山區健康路54號1樓,4.5,245.0,ChIJuZf9je6rQjQRQwBXEKaoXhE,25.0532079,121.55306689999999
松山區,髮廊,CQ2十分有型 主義店,105台灣臺北市松山區新東街51巷37號,4.6,2466.0,ChIJl_RiToyrQjQRCfcKsx2lNOc,25.061407,121.5635744
松山區,髮廊,小林髮廊金緻店,105台灣臺北市松山區新東街1巷1號,4.7,345.0,ChIJ_1Gw_JGrQjQRYaETCf_d8vc,25.057426,121.56585859999998
松山區,髮廊,MINGLIU Hair Salon 名留南京 (洗髮不預約),105台灣臺北市松山區南京東路四段131號2樓,4.3,114.0,ChIJYfJ_OuqrQjQR0db865PCDm4,25.0518865,121.5550189
松山區,髮廊,PUIS HAIR SALON,105台灣臺北市松山區復興北路313巷32號,4.6,61.0,ChIJq6hTidirQjQRJ-H7M-zvmlM,25.0588692,121.54647840000001
松山區,婚紗,松山伊頓婚紗攝影工作室,10566台灣臺北市松山區八德路四段678號12樓,5.0,363.0,ChIJJ-MmdO2rQjQRMPqIASbL13U,25.0499475,121.576443
松山區,婚紗,Just Hsu Wedding 高級訂製手工婚紗,105台灣臺北市松山區南京東路四段133巷4弄20號1F,5.0,295.0,ChIJO1seNaSrQjQRb0TP4xRaJiU,25.0523016,121.55442859999998
松山區,婚紗,CH WEDDING經典婚紗,10557台灣台北市松山區敦化南路1段21號2樓,4.8,520.0,ChIJRRMcIMyrQjQRb2KWFgDJtcI,25.0465645,121.5493048
松山區,婚紗,亞太麗緻精品婚紗 Asia Pacific Exquisite Wedding,105台灣臺北市松山區八德路四段666號,4.8,1374.0,ChIJN9GCYJmrQjQR00MMu3Oor5U,25.0496835,121.57620909999999
松山區,婚紗,CHAUNTEL BRIDAL 全球精品婚紗收藏館,"1F. No. 9號9弄346巷, 八德路二段松山區臺北市台灣 105",4.9,88.0,ChIJSZovgdurQjQRCUGzK9U4AGw,25.046444299999997,121.54523009999998
松山區,婚紗,Dear You Bridal 私宅訂製婚紗,105台灣臺北市松山區八德路四段245巷32弄33號,5.0,46.0,ChIJZfUgcjSrQjQR4fCqYP6xj1o,25.049832799999997,121.56358680000001
松山區,婚紗,SJ Wedding 鯊魚婚紗婚攝團隊,105台灣台北市松山區南京东路五段163號2樓之8,5.0,101.0,ChIJGSYzwpWrQjQRqKDVJrr4Jos,25.051650499999997,121.5626318
松山區,婚紗,KVISION 高端婚禮｜海外婚紗攝影（KVISION Wedding Photography）,105台灣臺北市松山區南京東路三段346號801室,5.0,101.0,ChIJ_yKzr-2rQjQRNnKuJdamvNI,25.051415100000003,121.5481609
松山區,婚紗,Joanna Wedding經典婚紗,105台灣臺北市松山區民生東路五段101號3樓,5.0,24.0,ChIJSw3EXmKrQjQRitk2Uoowb70,25.0587886,121.56001939999999
松山區,婚紗,衣夫人日式手作婚紗,105台灣臺北市松山區南京東路五段81號3樓,4.8,17.0,ChIJk9G3LuurQjQRSl5jzlK92Rk,25.0518161,121.56010199999999
松山區,婚紗,綠攝影像 Greenphoto Wedding,110台灣臺北市信義區松山路465巷18號1樓,4.9,199.0,ChIJHx-xE6GrQjQRCrp_PIATBJU,25.039724999999997,121.578908
松山區,婚紗,Crystal.Lace 水晶蕾絲婚紗-新人婚紗,105台灣臺北市松山區民生東路三段113巷25弄4號1樓,4.7,111.0,ChIJi0Ln0cerQjQRcCAvfuB1-7k,25.0594248,121.54653970000001
松山區,婚紗,Livia Bride 莉維亞歐美頂級手工婚紗,110台灣臺北市信義區忠孝東路五段508-8號,4.8,189.0,ChIJYUtLQ6GrQjQRfvdNui-KoJY,25.0406527,121.57840279999999
松山區,婚紗,賽西亞手工婚紗,"8F-1, No. 105號光復北路松山區臺北市台灣 105",4.6,67.0,ChIJ034HtJ6rQjQRB1r74-JZx0M,25.0510453,121.5582738
松山區,婚紗,Dionne Wedding,"No. 7號, 八德路四段453巷松山區臺北市台灣 105",4.9,106.0,ChIJ8bPOQperQjQRHPifNrNqI-U,25.0503983,121.5704839
松山區,婚紗,洋洋日拍 Ocean & Sun(預約制),105台灣臺北市松山區復興北路141巷6弄11號,4.8,120.0,ChIJxYJlWBCrQjQRUXcebMpPsJ4,25.0540272,121.54488680000001
松山區,婚紗,Days And Moment,105台灣臺北市松山區基隆路一段10號14樓,4.5,49.0,ChIJTebbAgKrQjQRFiOZ_kM6sM8,25.0506033,121.56987349999999
松山區,婚紗,台北巴黎婚紗,105台灣臺北市松山區八德路四段641號,4.4,78.0,ChIJM1XyX5mrQjQR3nJsyax8uuQ,25.0501853,121.5750776
松山區,婚紗,第九大道英式手工婚紗,10491台灣臺北市中山區松江路59號8樓(電梯入口在長安東路上,4.9,1400.0,ChIJHQd4x2OpQjQRk3LEWxQED2s,25.048316,121.53325299999999
松山區,婚紗,Milk and Honey Studio / 美式婚禮婚紗工作室,105台灣臺北市松山區敦化北路199巷10號,5.0,49.0,ChIJu8795XSrQjQRtRDWcOsLI-k,25.0562667,121.55076179999999
松山區,婚紗,成家婚禮顧問 W to H,105台灣臺北市松山區南京東路五段213號4樓,5.0,1530.0,ChIJL3gk0aapQjQRphreI7tlIpE,25.051672099999998,121.56399060000001
松山區,婚紗,婚禮攝影YES先生工作室,"2樓, No. 2號民生東路四段80巷11弄松山區臺北市台灣 10574",4.9,123.0,ChIJg90FvO6rQjQRci-9HQ2Ym68,25.0565565,121.5531005
松山區,婚紗,Ms. White's Closet 白小姐的衣櫃,105台灣臺北市松山區八德路三段144號2樓,4.9,55.0,ChIJW4lUY4KpQjQRgvH4Cs_UPds,25.0479418,121.55460579999999
松山區,婚紗,Diosa Bridal Dress 婚紗禮服工作室,110台灣臺北市信義區忠孝東路四段500號10樓-1,4.8,242.0,ChIJly5J7rirQjQR9BEcq9oOerk,25.040991899999998,121.56177910000001
松山區,婚紗,LINLI BOUTIQUE 林莉婚紗,106台灣臺北市大安區仁愛路四段117號一樓,4.8,1457.0,ChIJoVZgfkOpQjQRFqldau058jk,25.0381991,121.5503081
松山區,婚紗,囍聚手工婚紗工作室,10491台灣臺北市中山區吉林路299巷16號,4.8,229.0,ChIJAffxZlerQjQRgNZMXiXrGcE,25.0630293,121.5310985
松山區,婚紗,JillBridal 吉兒法式手工婚紗,10461台灣臺北市中山區中山北路三段32號5樓,4.9,433.0,ChIJk6Iic0WpQjQR5tdE1xh_o9Y,25.0655222,121.52203809999999
松山區,婚紗,手工婚紗,105台灣臺北市松山區八德路四段38號,3.0,2.0,ChIJpS3mOturQjQR8bMLf4KJWrM,25.048235,121.55918840000001
松山區,婚紗,台北伊頓自助婚紗攝影工作室,100台灣臺北市中正區中華路一段59號7樓,4.8,3902.0,ChIJ9doyiAmpQjQRFJ0MG99wup4,25.041167800000004,121.50856590000001
松山區,婚紗,S。SPOSA 高級手工訂製婚紗,114台灣臺北市內湖區南京東路六段497號,4.8,174.0,ChIJr9hEBy6oQjQRPJMlwp-OFD4,25.0614125,121.5881753
松山區,婚紗,靚媽咪手作媽媽禮服/晚宴服,105台灣臺北市松山區八德路四段641號,5.0,108.0,ChIJqdHoUP2rQjQRMRJFVhnZI-E,25.0501853,121.5750776
松山區,婚紗,e時尚｜視覺．手工婚紗｜E Wedding,10491台灣臺北市中山區中山北路二段81之1號,4.9,1787.0,ChIJm0xwjEKpQjQR0oT8aQBCZXU,25.058401,121.523121
松山區,婚紗,Only You Wedding Studio ．唯你婚紗,10491台灣臺北市中山區中山北路三段53-3號,4.9,2505.0,ChIJawTceEWpQjQRh4cABz_Cyf4,25.0678883,121.5229552
松山區,婚紗,翡麗詩莊園,105台灣台北市松山區敦化北路232號,4.2,1699.0,ChIJi3Uog--rQjQR24a44M1OCME,25.0593069,121.549087
松山區,婚紗,其樂斯婚禮顧問 CAELUS Taipei Wedding Planner,105台灣臺北市松山區敦化北路145巷23弄3號1樓,4.9,58.0,ChIJu-IKxGepQjQR0E17jCG9zfs,25.0531064,121.55048020000001
松山區,婚紗,橘攝兒童寫真館｜台北兒童攝影推薦｜親子寫真｜周歲寫真｜全家福寫真｜寶寶寫真｜抓周寫真｜寶寶攝影,105台灣臺北市松山區八德路四段38號,4.3,234.0,ChIJHSjSP3SrQjQRYy7m8ljaHVo,25.048235,121.55918840000001
松山區,婚紗,嚴選煙火零售 台北買煙火 告白 婚紗 首選 請先預約,110台灣臺北市信義區松山路,5.0,46.0,ChIJsQIX3wzW3ykR6ytIwDBrhbs,25.031942100000002,121.58023489999998
松山區,婚紗,White Atelier（ White手工婚紗）,106台灣臺北市大安區敦化南路一段295巷7號,4.6,118.0,ChIJvfZILdOrQjQRMqb9b05FVpI,25.0356341,121.54974469999999
松山區,婚紗,Andy Wu Image / 無敵影像,105台灣臺北市松山區南京東路五段393號3樓,5.0,24.0,ChIJq6qqqjlTXTQRD_PHRoyOZu4,25.051520399999998,121.56945349999998
松山區,婚紗,蘇菲雅麗緻婚紗 SophiaRitz Wedding Studio,104台灣臺北市中山區中山北路二段123號,4.6,666.0,ChIJ2y5cfUSpQjQR95aISUNfBUU,25.0613776,121.5233023
松山區,婚紗,Yours Bridal Dress 高級手工訂製婚紗,10491台灣臺北市中山區松江路90巷13號,4.7,91.0,ChIJLxHYgZupQjQRzx0AKGB3InA,25.0506589,121.53078560000002
松山區,婚紗,Ruby 婚紗攝影,104台灣臺北市中山區德惠街5號B1,4.9,476.0,ChIJK8glXwJ9lKwRPYfuCPy8hpA,25.0668227,121.5231282
松山區,婚紗,攝狗狗寵物寫真工坊｜寵物寫真｜寵物藝術照｜寵物婚紗｜台北寵物攝影推薦,105台灣臺北市松山區八德路四段38號,4.5,698.0,ChIJVUt8C8arQjQRzgnIMApW8ws,25.048226999999997,121.55918939999998
松山區,婚紗,法國巴黎婚紗攝影,104台灣臺北市中山區中山北路二段116號,4.7,2872.0,ChIJc_bVCUOpQjQRVcCPwA1RCtQ,25.060907099999998,121.52274020000002
松山區,婚紗,Camino攝影棚,105台灣臺北市松山區八德路四段166號3樓,4.9,97.0,ChIJk3QKqp6rQjQRwkhKtvFeiDE,25.0485999,121.56297740000001
松山區,婚紗,念念婚紗 – 台北民生店,10446台灣臺北市中山區民生東路一段58號5樓,4.6,189.0,ChIJJc6y0OOrQjQRDu__fGHJoDs,25.0579759,121.5249953
松山區,婚紗,Runway Studio,105台灣臺北市松山區南京東路四段75巷14弄15號,5.0,1.0,ChIJU--_kOmrQjQRXOTu_nqgi_o,25.0521131,121.5531719
松山區,婚紗,新娘秘書 化妝師 攝影師,10578台灣臺北市松山區延壽街9號3樓,5.0,3.0,ChIJ2SE81I-rQjQRPXTvqOcQyYc,25.0574056,121.5687059
松山區,婚紗,is good nine良九創意設計,105台灣台北市松山區南京东路五段123巷1弄23號1樓,4.9,239.0,ChIJVyZm10irQjQRcQt0xaBhQWg,25.052206299999998,121.5595948
松山區,婚紗,好事婚禮顧問公司,105台灣臺北市松山區八德路三段12巷52弄8號,4.7,13.0,ChIJ3d4YZsOrQjQRNAVhdW_7Bbw,25.046283499999998,121.5501063
松山區,婚紗,333號攝影棚 No333 photography studio,105台灣臺北市松山區復興北路333號10樓,4.9,145.0,ChIJx-eSlOqrQjQR17AUnXyidFk,25.059794999999998,121.54443429999999
松山區,婚紗,ROYAL MANSION 蘿亞結婚精品,11158台灣臺北市士林區中山北路五段520號9樓,4.6,679.0,ChIJz2jWT0SpQjQRlr6TmQP7cXg,25.093349,121.5285261
松山區,婚紗,JENNY CHOU Couture 禮服訂製．手工婚紗．訂製西裝,104台灣臺北市中山區伊通街47號2樓,4.8,112.0,ChIJ6XPsjXHQDRQR0Or4b0qW20A,25.051124599999998,121.53494389999999
松山區,婚紗,婚紗攝影工作室/拍婚紗/全家福照/閨蜜婚紗/個人寫真/婚禮攝影/婚禮紀錄/新秘造型/婚攝/親子寫真/寶寶照/婚紗照/海外婚紗旅拍-士林婚紗店-伊頓自助婚紗工作室,111台灣臺北市士林區中正路122號2樓,4.9,585.0,ChIJJXG_2WyvQjQRf9b6F5d3Jyk,25.0960947,121.52857809999999
松山區,婚紗,Beloved Bridal 最愛禮服,10491台灣臺北市中山區中山北路三段53-3號號 B1,4.9,444.0,ChIJL21waESpQjQR7gbt8009ADg,25.067895,121.52296539999999
松山區,婚紗,蒂米琪精品婚紗 Demetrios,11145台灣臺北市士林區中山北路五段645號,4.8,1402.0,ChIJVfPN6KKuQjQR9lfzpg0qqt0,25.096884600000003,121.52734579999999
松山區,婚紗,貳月婚紗 Moon's Wedding Dress/戴洛維婚紗系列/初貳品牌婚紗,103台灣台北市大同区延平北路二段77號3樓,4.8,398.0,ChIJychblVqpQjQR_mVUyZCz4WU,25.056049899999998,121.51191050000001
松山區,婚紗,夏威夷時尚婚紗,105台灣臺北市松山區南京東路五段377號,,,ChIJN_cYLJerQjQRD3Qx3vP6gtQ,25.0515284,121.56883420000001
松山區,婚紗,好好婚紗,103台灣臺北市大同區承德路三段125號2樓,5.0,50.0,ChIJNSZFIu6pQjQRLayO0dZo5FU,25.067102,121.51864959999999
松山區,婚紗,濰岭衣裳修改,105台灣臺北市松山區八德路二段386號8F-10,4.9,122.0,ChIJ_3bk7NyrQjQR0nZLfWV49Ew,25.048015200000002,121.5464051
松山區,美容護膚,澄園 Pure&Beauty Spa,105台灣臺北市松山區南京東路四段52巷10號,4.9,149.0,ChIJ-wn3-umrQjQRFOojozQRoXs,25.05066,121.5535364
松山區,美容護膚,羅麗芬美容美體,105台灣台北市松山區南京東路三段259號5樓之1,5.0,346.0,ChIJfW2-neerQjQR_a1aQh8rUNo,25.0520289,121.54491050000001
松山區,美容護膚,群悅美妍健體養護館 玫瑰店,105台灣臺北市松山區八德路三段112號3樓,5.0,158.0,ChIJ9YdOL8KrQjQRaodM3w6O32Q,25.048035100000003,121.55381419999999
松山區,美容護膚,露琺意LuVaii - 台北松山店,105台灣臺北市松山區健康路7巷3號1樓,5.0,144.0,ChIJA9EIytyrQjQRWMmg0lc4pRg,25.0525955,121.5523275
松山區,美容護膚,Charming時尚美學（台北東區清粉刺｜痘痘｜內皰粉刺｜做臉｜男士保養｜松山｜撥筋放鬆｜大安｜中山,105台灣臺北市松山區復興南路一段43號2樓,4.9,1164.0,ChIJB-cUwNurQjQRDCCXBsfY4-Q,25.0457213,121.5440906
松山區,美容護膚,群悅美妍健體養護館 太陽花店｜夜間美容/越式洗髮/按摩/SPA/養生館/臉部保養/松山養生館/松山按摩,105台灣臺北市松山區南京東路四段115號2樓,5.0,180.0,ChIJvyAXMOqrQjQR1K5vwDhIIKQ,25.051866099999998,121.55487709999998
松山區,美容護膚,H · 沐妍澄,105台灣臺北市松山區南京東路五段212號5樓,5.0,66.0,ChIJB6TMEs-rQjQRjQ6e_X3ZTgc,25.051148299999998,121.56518
松山區,美容護膚,A'CHRON 艾珂菈 【南京三民-湯泉SPA】頂級精油芳療,105台灣臺北市松山區南京東路五段66巷2弄7號,4.9,209.0,ChIJjdYoL7yrQjQRwk-efHFoTnw,25.050883,121.5601444
松山區,美容護膚,膚 House肌膚管理（松山區臉部保養｜粉刺 痘痘 敏感 毛孔 ｜松山區清粉刺｜南京三民做臉｜小巨蛋做臉｜男生清粉刺｜南港、內湖、新店、大直、汐止、中山區）推薦護膚,105台灣臺北市松山區南京東路五段135號3樓,4.9,132.0,ChIJW8MzNuyrQjQRwnB0VWG5Cr8,25.0517414,121.5614871
松山區,美容護膚,Silvia•平衡美學,105台灣臺北市松山區復興南路一段1號14樓,5.0,119.0,ChIJaY56IrSrQjQRyPmXqi_feWQ,25.047407099999997,121.5442138
松山區,美容護膚,群悅美妍健體養護館 百里香店/按摩/SPA/養生館/美容/松山養生館/松山按摩,105台灣臺北市松山區南京東路五段58號1樓,5.0,56.0,ChIJk5qE15SrQjQR7oBB2eY5BbY,25.0512823,121.5605113
松山區,美容護膚,HérZ skincare salon | 荷拾皮膚管理中心,10552台灣臺北市松山區復興北路313巷15號1樓,4.9,407.0,ChIJKcoyY9CrQjQR9i-A3sTfZb4,25.059094599999998,121.5454816
松山區,美容護膚,克麗緹娜新形象概念館,105台灣臺北市松山區新東街20巷6號,5.0,45.0,ChIJdSp_Go6rQjQR9JtTne56H0A,25.0582423,121.56654080000001
松山區,美容護膚,超悅美學Spa 八德店,105台灣臺北市松山區八德路三段73號一樓,5.0,257.0,ChIJ4c9nmI-rQjQRhbVSwPjcbhI,25.0483501,121.5530047
松山區,美容護膚,YU Bride Makeup,105台灣臺北市松山區復興北路81巷18號,5.0,106.0,ChIJsxT54CCrQjQRXwt115zmfvQ,25.051130999999998,121.54495399999999
松山區,美容護膚,美廷 SPA會館,10597台灣臺北市松山區南京東路五段162號5樓,4.6,116.0,ChIJC_EmFeerQjQRXg1O2ks7J0w,25.0513008,121.56311420000002
松山區,美容護膚,skinfairy.肌膚仙女｜粉刺痘｜專業護膚｜撥筋｜身體調理｜,105台灣臺北市松山區南京東路四段17號8F之5,5.0,27.0,ChIJ9VQ8vr6rQjQR3qsQXFK7u-E,25.0519315,121.5501482
松山區,美容護膚,東森自然美_松山南京東店,105台灣臺北市松山區南京東路五段123巷2弄26號,5.0,14.0,ChIJWcFQ7JSrQjQROjtx-qif0PI,25.0520346,121.5617853
松山區,美容護膚,佳倍莉SPA小巨蛋館,105台灣臺北市松山區南京東路四段139號2樓,4.7,291.0,ChIJ4S4BN-qrQjQRZP6YPuAG04s,25.051843299999998,121.55535099999999
松山區,美容護膚,幸福媛時尚SPA（三民店）,105台灣臺北市松山區吉祥路23號,4.3,80.0,ChIJd3orHR2rQjQRdSMOBvUEha0,25.0494968,121.562698
松山區,美容護膚,無何有·香 Utopia Spa - 專業按摩 精油按摩 孕婦按摩 臉部保養 水飛梭 無痛清粉刺 掏耳采耳耳燭 頌缽音療,105台灣臺北市松山區南京東路五段156號6F-1,4.9,123.0,ChIJhboWHmerQjQREBUhoQFALPE,25.0512539,121.56280869999999
松山區,美容護膚,A&p spa,105台灣臺北市松山區南京東路三段303巷8弄4號B1,5.0,30.0,ChIJ28bOZkerQjQRf80lfh1C1GA,25.052752299999998,121.5470433
松山區,美容護膚,詩嫚特smarter spa紓壓（西華店）,105台灣臺北市松山區復興北路313巷34號1樓,5.0,287.0,ChIJ77aLu-WrQjQRWBZO1XLAuJA,25.058809999999998,121.546607
松山區,美容護膚,癒淳肌膚美顏所 Yu Chun Skin Care｜肌膚管理｜睫毛管理,105台灣臺北市松山區光復南路58巷15-3號,5.0,88.0,ChIJ4VtSR7-rQjQR0ev3-9Etqok,25.0456148,121.5560575
松山區,美容護膚,Baby Skin嬰兒肌,105台灣臺北市松山區慶城街8-1號4樓,4.9,270.0,ChIJxcEEs8WrQjQRGMSqNbtyBqs,25.0526792,121.5449336
松山區,美容護膚,face_show_face,105台灣臺北市松山區八德路三段133號3樓,5.0,117.0,ChIJSeakwWCrQjQRjqf8dHfX_2g,25.0482671,121.5545831
松山區,美容護膚,維多利亞 SPA,105台灣臺北市松山區南京東路三段303巷8弄4號1樓,4.6,67.0,ChIJo9Kr6FapQjQR95_LjhZZKFY,25.052810899999997,121.5470235
松山區,美容護膚,詩嫚特Smarter spa紓壓(復北店),10544台灣臺北市松山區復興北路325號3樓,4.7,202.0,ChIJt7ZIQ-SrQjQRV8FQo_I-fhM,25.0595328,121.5444247
松山區,美容護膚,淨膚寶 Skin Bar 南京三民加盟店,105台灣臺北市松山區南京東路五段250巷2弄3號,5.0,873.0,ChIJFwEmIcqrQjQR7lnLWjSMFiY,25.0508345,121.5662926
松山區,美容護膚,悅妍SPA-信義店 l 美容spa l 護膚美容 l 美容 l 皮膚管理 l 做臉 l 清粉刺 l 海藻針,11064台灣台北市信义区忠孝東路五段55號五樓,5.0,923.0,ChIJyaqbRGirQjQRT1NQctPi8wQ,25.041303,121.56660699999999
松山區,美容護膚,參陸玖spa館,105台灣臺北市松山區八德路二段369號,4.4,61.0,ChIJqWcZbxSrQjQREEP-Lm4lLqw,25.047922,121.544815
松山區,美容護膚,韓花Han Flower | 韓式皮膚管理 | 水飛梭,"105台灣台北市松山區南京东路五段291巷5弄3號1樓, No",5.0,127.0,ChIJcwAFv3ASokwRahll6uKP6SQ,25.051987699999998,121.56644240000001
松山區,美容護膚,Eunice SPA 台北敦北館,105台灣臺北市松山區敦化北路222巷2號3樓,5.0,202.0,ChIJf30fxOBrQIURbQn9vJiQktE,25.058698999999997,121.54872800000001
松山區,美容護膚,M SPA美容眉睫美甲,105台灣臺北市松山區南京東路三段303巷14弄8-1號2樓,5.0,86.0,ChIJ7UV0ixWrQjQRcBupgeXCceA,25.0531428,121.5474674
松山區,美容護膚,Lidia SPA孋緹亞美容美體,105台灣臺北市松山區興安街165號,5.0,20.0,ChIJZdh2YearQjQR7OQ8BbbZNtg,25.056236199999997,121.54580910000001
松山區,美容護膚,奕喬美容SPA工作室,105台灣台北市松山區八德路四段91巷11號1樓,5.0,6.0,ChIJ0WcQ336rQjQRWPw_2B9jDWQ,25.0494167,121.56067429999999
松山區,美容護膚,逗Doll Spa 小巨蛋八德店｜ 專業認證孕婦按摩｜芳療精油舒壓按摩｜限女性｜近捷運,105台灣臺北市松山區北寧路6號3樓,4.9,846.0,ChIJOy66OMKrQjQRDmXTZbxOQHc,25.048558,121.5527858
松山區,美容護膚,靜悅眠療 南京店｜夜間美容/越式洗髮/按摩/SPA/養生館/臉部保養/南京養生館/南京按摩,10580台灣臺北市松山區南京東路四段115號2樓,5.0,402.0,ChIJL6yEFLirQjQRPU6k5BkPExM,25.051866099999998,121.55487709999998
松山區,美容護膚,菲尼亞美妍麗緻 Fania Beauty,105台灣臺北市松山區三民路166巷9號1樓,4.8,35.0,ChIJEeWpZo2rQjQR82x6fDyixac,25.0620311,121.563702
松山區,美容護膚,克麗緹娜-南京八德店,105台灣臺北市松山區八德路四段245巷10號1樓,4.9,51.0,ChIJPdoluP2rQjQR7RvyFis0AbE,25.049345499999998,121.5646897
松山區,美容護膚,FairyBeauty 仙子美學台北松山店-專業日式除毛/牙齒淨白,105台灣臺北市松山區八德路四段666號5樓,5.0,2092.0,ChIJn7bA6b2rQjQR_nsqAgsddlM,25.0498448,121.5760682
松山區,美容護膚,佐登妮絲專業SPA_台北南京二店,105台灣臺北市松山區南京東路五段133號,4.9,70.0,ChIJD-Mx5-qrQjQRpCLbwrA59Fg,25.0517464,121.5614387
松山區,美容護膚,Thalgo 生活美顏館,105台灣臺北市松山區民生東路五段138巷7號1樓,5.0,16.0,ChIJ7-GCPzurQjQRtYqL0kEmopM,25.0581589,121.56174759999999
松山區,美容護膚,群悅美妍健體養護館 櫻花店,110台灣台北市信义区松山區松德路41-43號,5.0,81.0,ChIJz9zwq6arQjQRGzNkFMWE7NE,25.0389044,121.57719580000001
松山區,美容護膚,逗Doll Spa 台北南京店｜ 專業認證孕婦按摩｜芳療精油舒壓按摩｜限女性｜近捷運,105台灣臺北市松山區南京東路三段269巷6號6樓,4.9,1042.0,ChIJf7fnguerQjQRhWm1q3_Rd9I,25.052566199999998,121.5455035
松山區,美容護膚,靜悅眠療 八德店｜夜間美容/越式洗髮/按摩/SPA/養生館/臉部保養/松山養生館/松山按摩,10555台灣臺北市松山區八德路三段112號3樓,5.0,76.0,ChIJI7mepu-rQjQRYWI9VAGlP-4,25.048035100000003,121.55381419999999
松山區,美容護膚,VIVISPA南京光復店,105台灣臺北市松山區光復北路102號3樓,4.6,307.0,ChIJzdaE8uqrQjQRSPWE3ryc2LA,25.0506113,121.55769769999998
松山區,美容護膚,新時代spa美妍館,105台灣臺北市松山區新中街35-1號,4.9,51.0,ChIJyyssUo2rQjQRS0m6JFJW9j0,25.059753600000004,121.5602662
松山區,美容護膚,費思特美容美體SPA敦化店,105台灣臺北市松山區敦化北路238巷20號,4.9,186.0,ChIJC1Lzvt2rQjQRLKLHe_05gvc,25.060358599999997,121.54835539999999
松山區,美容護膚,Frui 美學,105台灣臺北市松山區南京東路四段179巷3弄9號2樓,5.0,90.0,ChIJqfw8WoyrQjQRYyN0CwAmdsY,25.0521316,121.5568717
松山區,美容護膚,依定美時尚診所-小巨蛋店｜鳳凰電波｜皮秒雷射｜微整形｜音波拉提｜隆乳｜雙眼皮｜肌力塑｜冷凍減脂｜G動椅｜潔比爾｜醫美推薦,105台灣台北市松山區八德路三段2號2樓,4.9,1332.0,ChIJrZ0sL96rQjQRrMuLqq9Udjk,25.0480943,121.5496444
松山區,美容護膚,自帶光時空美學館,10566台灣臺北市松山區八德路四段604-15號,4.9,69.0,ChIJQUXazB-rQjQRGYqlzEmnsIA,25.049700899999998,121.5727809
松山區,美容護膚,Lumi Atelier,105台灣臺北市松山區健康路233號1樓,5.0,17.0,ChIJTcEdfTGrQjQRljAELuQJFQI,25.0543238,121.5629739
松山區,美容護膚,彭村梅spa美容養生館 民生店,105台灣臺北市松山區民生東路五段240號,5.0,174.0,ChIJ-1iGaY6rQjQRTiAH_OlHb-4,25.058931400000002,121.5663911
松山區,美容護膚,欣悅超美診所,105台灣臺北市松山區復興北路73號3樓,4.7,167.0,ChIJH3FCld2rQjQRwe8zDDggmgM,25.0510506,121.544235
松山區,瑜珈,A_TIME.studio,105台灣臺北市松山區八德路四段765號2樓,5.0,114.0,ChIJEdSWJMOrQjQR-me9Z6J9bqM,25.051154000000004,121.577943
松山區,瑜珈,揪in瑜伽教室 | 瑜伽課程 | 空間租借 | 頌缽療癒,105406台灣臺北市松山區南京東路四段197號11樓,5.0,80.0,ChIJN1r40qSrQjQRoMHpnxCxoFU,25.051833499999997,121.55688669999998
松山區,瑜珈,忻瑜珈Shing Yoga,105台灣臺北市松山區復興北路369號2F,4.4,100.0,ChIJYyJ9zeSrQjQRglKJMSc2CX8,25.062600099999997,121.54475789999998
松山區,瑜珈,含含瑜珈運動空間,105台灣臺北市松山區南京東路五段15號11樓,5.0,61.0,ChIJf4SYZXarQjQRlPB2VGIv0T0,25.0518066,121.5578296
松山區,瑜珈,小島好日Islanday Studio + 瑜珈．空間．療癒．生活,105台灣臺北市松山區吉祥路43號,5.0,61.0,ChIJewKFxSCrQjQRdFzRKBmSmCw,25.050072500000002,121.56264979999999
松山區,瑜珈,煦灣瑜珈Lucent Bay Yoga Studio,105台灣臺北市松山區寶清街111巷36號1樓,5.0,71.0,ChIJfaDxWPerQjQRlp2E6QWjCJE,25.053879199999997,121.56876940000001
松山區,瑜珈,YOUTH Fitness & Yoga敦北南京館,105台灣臺北市松山區敦化北路100號1樓,4.7,144.0,ChIJN9nVKMarQjQRidbHTEYuyow,25.0524299,121.5484122
松山區,瑜珈,ING YOGA 穎瑜珈 南京教室,105台灣臺北市松山區南京東路五段31號2樓,4.9,30.0,ChIJVxlQJwCrQjQRurTVtkQbHEE,25.0517456,121.55822429999999
松山區,瑜珈,Fly High Yoga 台北永春,110台灣臺北市信義區松山路346號1樓,4.9,73.0,ChIJswb89jurQjQRdU4mJuT9Wpk,25.041293,121.57761339999999
松山區,瑜珈,涅槃瑜伽學苑 Nirvana Yoga & Ayurveda School,10550台灣臺北市松山區南京東路四段47號6F,4.8,57.0,ChIJo77vSeirQjQRwnADb45E2UM,25.0519891,121.5509295
松山區,瑜珈,JUNGLE CENTER 叢零體適能中心,105407台灣臺北市松山區光復南路1號號地下1樓,5.0,2061.0,ChIJHwjppxirQjQRF4Fl_ShVcJ0,25.0480779,121.5580227
松山區,瑜珈,天愛瑜伽 Aditi Yoga Studio,105台灣臺北市松山區南京東路四段51號7F,5.0,23.0,ChIJ84R3SuirQjQR3tgEFPodQfk,25.0518891,121.551023
松山區,瑜珈,DW YOGA 女性專屬瑜珈課程 (南京教室),105台灣臺北市松山區南京東路五段251巷24弄20-1號,5.0,10.0,ChIJaasrX7OrQjQRHQ7-MO944Rc,25.0526137,121.5642169
松山區,瑜珈,富錦瑜伽工作室,105台灣臺北市松山區富錦街,5.0,10.0,ChIJYy5FJ22rQjQR6cJ91JAV6yQ,25.0597998,121.5529249
松山區,瑜珈,"自在生活｜瑜珈 鋼管 空中 教室｜Yoga, Pole, Aerial Studio",105台灣臺北市松山區南京東路五段315號5 樓 之 2,5.0,26.0,ChIJjVRfbQCrQjQRBvXUgrfiktU,25.0516445,121.5667863
松山區,瑜珈,遇見-提斯 南京館 Serendipity Pilates 《皮拉提斯老師推薦》松山區皮拉提斯教室｜教學課程｜一對一｜專業｜器械皮拉提斯,105台灣台北市松山區南京东路五段70號5樓,5.0,97.0,ChIJU1u0AVOrQjQRCgx52onlTOE,25.0512217,121.56092790000001
松山區,瑜珈,azusa Wellness,105台灣臺北市松山區八德路三段190號,5.0,51.0,ChIJ44TpKu2rQjQREPU_eZv4QUA,25.047843399999998,121.55608249999999
松山區,瑜珈,臻瑜珈,105台灣臺北市松山區南京東路五段139號3樓,4.8,6.0,ChIJffh2OaKrQjQRPd28P7VjRRY,25.0516644,121.5615781
松山區,瑜珈,幸孕瑜珈 ️產兒護理瑜珈師資 ️專屬孕媽咪の運動 ️生產/陪產/哺育/寶寶護理課程 ）,105台灣臺北市松山區復興北路179號3樓,4.9,546.0,ChIJ_c9lF-erQjQR2qpiF3Ved-I,25.054247699999998,121.5443829
松山區,瑜珈,YOGA EDITION 敦南旗鑑館,106台灣臺北市大安區忠孝東路四段151 號,4.7,821.0,ChIJbwWUFbCrQjQRr5X1sI2u7rA,25.041710700000003,121.54979319999998
松山區,瑜珈,身體秘境 BODYMYSTERY Yoga/ Dance Studio,106台灣臺北市大安區光復南路240巷5號2F,4.9,154.0,ChIJ4eYhevirQjQRW1rdB0H17q4,25.0405776,121.55705700000001
松山區,瑜珈,唯爾運動 WellSpace,105台灣臺北市松山區南京東路四段137號7 樓,5.0,530.0,ChIJDU0--lWrQjQRePTAeowwZa0,25.051832299999997,121.5553266
松山區,瑜珈,DEN YOGA 復興館,106台灣臺北市大安區忠孝東路四段48號8樓,5.0,310.0,ChIJZ_yTTDCrQjQRaJxVy63t_7I,25.0414226,121.54486159999999
松山區,瑜珈,Rinascita studio ｜空中瑜珈｜療癒藝術空間｜信義館,110台灣臺北市信義區永吉路75號,4.9,91.0,ChIJayOyqoSrQjQREK_V6ww3ERw,25.046243999999998,121.5692112
松山區,瑜珈,RNA Training 艾莎雷德體能顧問工作室,105台灣臺北市松山區南京東路五段62號2樓,5.0,31.0,ChIJHcUR_jarQjQRSnPp_EDxVqc,25.051296699999998,121.56056609999999
松山區,瑜珈,FLOWIN 羽菲瑜珈｜皮拉提斯｜共享空間,106台灣臺北市大安區忠孝東路四段148號12樓 1201室,5.0,54.0,ChIJFQEQKIarQjQRkb8XR_5LAtY,25.041335699999998,121.5497336
松山區,瑜珈,SPACE YOGA安和館 (明曜百貨 13F),106台灣台北市大安区忠孝东路四段200號13樓-1,4.6,534.0,ChIJSdrLkM-rQjQRHodTPtOdJ64,25.040964,121.55219330000001
松山區,瑜珈,日心健身 南京旗艦館 (HOME FITNESS)｜器械私人皮拉提斯｜私人重量訓練｜瑜珈｜物理治療師｜運動按摩｜預約型團體課程｜健身房自主訓練,105台灣臺北市松山區南京東路五段176號,4.9,328.0,ChIJYZQqQQCrQjQR7Fs3s4e4Lrc,25.051252599999998,121.56338570000001
松山區,瑜珈,a place【Online Iyengar Yoga Classes 線上艾揚格瑜小班 】,105台灣臺北市松山區南京東路五段239號,5.0,9.0,ChIJrXyFGDirQjQRxmhbkLxVGSg,25.051651999999997,121.564802
松山區,瑜珈,Bhasantii寶萱瑜珈BSYOGA,110台灣臺北市信義區信義路四段391號6樓之1,5.0,186.0,ChIJ2Wsxi8mrQjQR_VuzDFZX7Y4,25.0332805,121.5584025
松山區,瑜珈,忻 Shing Spa,105台灣臺北市松山區復興北路369 號2 樓,5.0,14.0,ChIJ19VcfqerQjQRSF0FdowhsXg,25.062600099999997,121.54475789999998
松山區,瑜珈,體線運動,105台灣台北市松山區南京东路四段186號六樓之9,4.6,27.0,ChIJf41PpO2rQjQRpBpMtJJrqV4,25.051318199999997,121.55764889999999
松山區,瑜珈,就John來運動,105047台灣臺北市松山區八德路四段687號B1,5.0,20.0,ChIJgUOTZfWpQjQRA3T7l6PGGqU,25.0501777,121.57642589999999
松山區,瑜珈,小窩 Yoga studio,105台灣臺北市松山區復興南路一段57號2樓之1B,5.0,11.0,ChIJvdUXVfOrQjQR48J2kXmXrkc,25.045247,121.544125
松山區,瑜珈,墾趣•動 Go Fitness -健身房推薦|器械皮拉提斯|瑜珈|銀髮族運動|肌力訓練|私人教練|企業包班|台北中山區|捷運南京復興站,104106台灣臺北市中山區長春路382號2樓,5.0,249.0,ChIJ5b5G6QKrQjQRwIwZ8iYQKfE,25.0543987,121.5432663
松山區,瑜珈,Ginyoga 瑭琪經筋瑜珈,106台灣臺北市大安區安和路一段29號16樓,4.8,188.0,ChIJu9WsGjGrQjQR05EGMyY4XSk,25.0392384,121.55055949999998
松山區,瑜珈,Michelle Chu Yoga 瑜伽學院【會員預約制】,106台灣臺北市大安區忠孝東路四段319號4樓之1,4.9,137.0,ChIJqSK-Y4GrQjQRi06H9ENJTmQ,25.041629399999998,121.5561615
松山區,瑜珈,KX Pilates 民生店│動態彼拉提斯 核心床團課│澳洲皮拉提斯,105台灣臺北市松山區民生東路四段129號,5.0,435.0,ChIJ6ZvYYryrQjQRWr89ej4Q0sI,25.058317,121.55403090000001
松山區,瑜珈,Yoga Journey 瑜珈旅程 復興館,106台灣臺北市大安區復興南路一段222號3 樓,4.6,1942.0,ChIJHfJzKNGrQjQRON4YMHN-gmM,25.0391999,121.5434675
松山區,瑜珈,YS Shala｜瑜生,"4樓, No. 155號忠孝東路四段大安區臺北市台灣 106",5.0,44.0,ChIJrbhIX46rQjQRmsZhulbUa08,25.0417767,121.54999459999999
松山區,瑜珈,瑜珈海洋 Yogi Ocean Studio,10491台灣臺北市中山區松江路315號4樓,4.0,102.0,ChIJEfU5aHWpQjQRSles1l9ffrU,25.0620419,121.5334157
松山區,瑜珈,DW YOGA 女性專屬瑜珈課程 (市府教室),110台灣臺北市信義區忠孝東路五段17號2F,5.0,203.0,ChIJhR80SEyrQjQRBP4Ko0W98Fc,25.041356,121.56557099999999
松山區,瑜珈,KX Pilates 台北松山店│動態彼拉提斯 核心床團課│澳洲皮拉提斯,"3樓, No. 66號南京東路五段松山區臺北市台灣 105",5.0,124.0,ChIJ4z0_yIerQjQRUllG1BUVNA4,25.0511785,121.5607031
松山區,瑜珈,諾瑪瑜珈光復館 NoMad Om Factory Guang Fu (school of YOGA),106台灣臺北市大安區光復南路240巷48號1樓,4.5,75.0,ChIJsaMKUSqrQjQRFU5qJjCgoAM,25.040862399999998,121.5553575
松山區,瑜珈,奎山宜水瑜珈專賣,105台灣臺北市松山區八德路二段346巷7弄16號1樓,4.2,72.0,ChIJEaf_tuerQjQRrDZx8JCp5_U,25.0467259,121.54536189999997
松山區,瑜珈,Space Cycle 台北明曜旗艦館,"106台灣臺北市大安區忠孝東路四段200號, 13",4.6,1014.0,ChIJtThRvcWrQjQRSokuvR-lIog,25.041231999999997,121.552014
松山區,瑜珈,台灣喜馬拉雅瑜珈靜心協會,105台灣臺北市松山區民權東路三段153巷4弄6號,4.7,15.0,ChIJCbC3UV-pQjQRaQkJrXgkvvk,25.0624638,121.546478
松山區,瑜珈,Inside Yoga Studio Taipei,104台灣臺北市中山區南京東路二段96號10樓,4.8,55.0,ChIJz5wsBF-pQjQRbo4G6iKDym0,25.051862,121.53128389999999
松山區,瑜珈,D SPACE 24小時共享空間｜瑜伽教室｜舞蹈教室,110台灣臺北市信義區基隆路一段149號,5.0,2.0,ChIJmdjmGwCrQjQRv391UDmwJPA,25.0424834,121.5655454
松山區,瑜珈,超愛動,105台灣臺北市松山區南京東路五段202號2樓,5.0,28.0,ChIJwbvIj5SrQjQRVBt978oqKh8,25.0512257,121.56479429999999
松山區,瑜珈,selfroom workoutplace,105台灣臺北市松山區市民大道六段131號,4.1,374.0,ChIJP98OJn2rQjQRu4Z27C62Pkg,25.0496652,121.57880759999999
松山區,瑜珈,樂達瑜珈教室 Ram Yoga Studio,110台灣臺北市信義區基隆路一段155號11F-6,5.0,2.0,ChIJbZyfYQCrQjQRfEeMz4cZ9jc,25.0421864,121.5654128
松山區,瑜珈,窈窕韻姿瑜珈工作室 SLIM YOGA,106台灣臺北市大安區忠孝東路四段59號10樓之4,4.9,9.0,ChIJt1bhhtqrQjQR4Q2mUCjBceo,25.0419062,121.54605429999998
松山區,瑜珈,Focus Training專注訓練運動空間,105台灣臺北市松山區南京東路五段208號2樓,5.0,214.0,ChIJfzEEzMOrQjQRt09KCy9oGy8,25.0511615,121.5649583
松山區,瑜珈,Curves可爾姿松山店,105台灣臺北市松山區八德路四段666號4樓,5.0,176.0,ChIJ_UN1XJmrQjQRZGrrSqfuw68,25.0496835,121.57620909999999
松山區,瑜珈,原始瑜珈沙卡爾療癒學苑,110台灣臺北市信義區基隆路一段396號12樓,5.0,125.0,ChIJZ8HRbDarQjQRgAhmZmQySHM,25.0343175,121.56013320000001
松山區,瑜珈,Yoga-Titanic,10696台灣臺北市大安區延吉街137巷30號B1,5.0,42.0,ChIJH5X-6zarQjQRFRvmDBD-3G8,25.0419117,121.5554875
松山區,瑜珈,奕綺強力適能瑜珈,106台灣臺北市大安區忠孝東路四段197號10樓之11,4.9,41.0,ChIJzXm1X52rQjQRYZuE0V37tcc,25.0416572,121.55139039999999
松山區,瑜珈,Mimosa Yoga 想享瑜伽,105台灣臺北市松山區復興南路一段1號5F(501室,,,ChIJsd7CUDyrQjQRm8nXexBuLEE,25.047402899999998,121.54418109999999
松山區,瑜珈,F INFINITE - CO 中山國中站,105台灣臺北市松山區民權東路三段106巷3弄2號,4.8,4.0,ChIJnw2ifperQjQR8qHEaZabq90,25.0613514,121.54561849999999
松山區,SPA,泰之心精緻SPA健康館,110台灣臺北市信義區松山路227號,4.9,2690.0,ChIJX0zdblKrQjQRig4-OAfEjJ4,25.0447599,121.57797569999998
松山區,SPA,沐谷 Thai Spa,105台灣臺北市松山區民生東路五段43號,4.9,439.0,ChIJHXqCzgirQjQR6_SEhMEgZJs,25.0585816,121.55727329999999
松山區,SPA,梅庭苑.沐心SPA會館,105台灣臺北市松山區復興北路305號,4.9,837.0,ChIJr5vAJ_yrQjQR7MG1cNWkjc4,25.058317799999998,121.5444555
松山區,SPA,Villa.like 悅禾莊園Spa -南京會館,105台灣臺北市松山區南京東路四段186號2樓,4.6,457.0,ChIJBU-HCbSrQjQRp39eVFyCVDE,25.0513181,121.55764889999999
松山區,SPA,微風SPA｜M&G富登SPA-熱石 肩頸全身紓壓 孕婦夫妻情侶按摩 松山區SPA推薦 SoGo百貨Spa,105台灣臺北市松山區復興南路一段47巷11號1,4.9,162.0,ChIJUTZgvNurQjQRzaB_DHX6WSY,25.0452589,121.5445122
松山區,SPA,竹悦坊療癒莊園 massage 신천지 마사지 マッサージ-松山全身推拿|南京三民經絡按摩|足體按摩|舒壓按摩|推薦腳底按摩|放鬆按摩|推拿放鬆|全身指/油壓,"號 2 樓, No. 141南京東路五段松山區臺北市台灣 105",4.5,433.0,ChIJhfe7XpSrQjQRxAPukr4o4fU,25.051718299999997,121.5617276
松山區,SPA,黛寶拉SPA 復北館｜南京復興站SPA按摩｜女性芳療舒壓館,105台灣臺北市松山區復興北路201號12樓之1,4.9,168.0,ChIJnwdY6OarQjQRfGqunZkuA4U,25.0557591,121.544358
松山區,SPA,台北文華東方酒店芳療中心,10548台灣台北市松山區敦化北路158號,4.3,89.0,ChIJ-3s7HuarQjQRjXARhvjoP6Q,25.055660699999997,121.54842819999999
松山區,SPA,璦琜養生館/指壓/油壓/腳底按摩/孕婦按摩/修腳皮腳趾甲/발 마사지/전신마사지/足裏マッサージ/全身マッサージ,105台灣台北市松山區民生东路五段175-2號1樓,5.0,2474.0,ChIJUS4hwI2rQjQRjdEoCnZPo4c,25.0596119,121.5642299
松山區,SPA,泰和殿泰式SPA養生會館,105台灣臺北市松山區光復北路34號,4.3,647.0,ChIJdbQig-qrQjQRA7uNkj6tkc4,25.0493778,121.55760910000001
松山區,SPA,Eunice SPA 南京復興館,105台灣臺北市松山區復興北路145號4樓,4.9,433.0,ChIJicq6-5GrQjQR5W2PvF8y0Gk,25.053686,121.5443
松山區,SPA,Tango Era Massage 按摩SPA,"6樓之1, No. 63號復興南路一段松山區臺北市台灣 105",4.9,367.0,ChIJ27XhNxyrQjQRSEz5_vvJzIU,25.0450789,121.54412099999998
松山區,SPA,True Massage 客製化專業按摩空間 | 南京三民店 | 預約制 Reservation Only,105台灣台北市松山區南京东路五段48-1號1 樓,4.7,190.0,ChIJD7CF0VOrQjQR_QbgJtE4FMs,25.051285200000002,121.5599784
松山區,SPA,iMassage｜台北按摩｜松山按摩｜台北油壓按摩｜台北頭部按摩｜台北運動按摩｜台北刮痧｜massage｜台北SPA｜マッサージ｜台北肩頸放鬆（松山店/預約制）,105台灣臺北市松山區復興南路一段1號11樓-4,4.8,212.0,ChIJ-dR5ityrQjQRpMQtiaj6_to,25.047402899999998,121.54418109999999
松山區,SPA,樂 足體養生工廠,105台灣臺北市松山區新東街11巷17號,4.9,320.0,ChIJOzox-Y2rQjQRNhyFDtTaaU0,25.0582301,121.56522460000001
松山區,SPA,今棧足體養生會館,110台灣臺北市信義區松山路158號,4.4,251.0,ChIJ99vTMZ-rQjQR6-CjWlnc_L8,25.046433,121.57760150000001
松山區,SPA,安瑤療癒空間-台北館-松山精油spa|脈輪療癒|舒壓按摩|孕婦放鬆按摩|芳療舒壓|靈性療癒|能量療癒|芳療課程,105台灣台北市松山區八德路二段447號5樓,5.0,14.0,ChIJ4YIS2FirQjQR0e75Ks130WI,25.048336799999998,121.54728879999999
松山區,SPA,妤美人spa館(個人工作室 限女性）,"號 13樓1301 No. 399, 南京東路五段松山區臺北市台灣 105",5.0,11.0,ChIJLWdfaASrQjQRxSbuhHlVTOA,25.0515465,121.5696021
松山區,SPA,Oasis Massage｜松山南京三民店｜綠洲客製化專業按摩【預約制 Reservation Required】深層按摩｜SPA｜運動按摩｜頭部舒眠｜腹部循環｜孕婦按摩｜刮痧拔罐滑罐,10597台灣臺北市松山區南京東路五段156號6樓之1,4.9,22.0,ChIJy596n4WrQjQRIs6pUudGwcA,25.0512539,121.56280869999999
松山區,SPA,金樂頂級按摩館(牡丹會館),105台灣臺北市松山區八德路三段226號,4.6,454.0,ChIJNbKDSsCrQjQRogRFx3-X3fo,25.0480011,121.5571559
松山區,SPA,村之閣 The Village Spa,10491台灣臺北市中山區林森北路450號,4.9,6323.0,ChIJ-zqrjcOpQjQRb8uYciA1WuM,25.0607577,121.52548990000001
松山區,SPA,舒活苑健康會館-敦北總店,105台灣臺北市松山區敦化北路155巷114號,4.5,113.0,ChIJa-AZQOmrQjQRd1_oyzziRp4,25.0543437,121.55275329999999
松山區,SPA,黛寶拉SPA 敦北館｜長庚醫院站SPA按摩｜女性芳療舒壓館（男性須陪同預約）,105台灣臺北市松山區民生東路四段47號4樓,4.8,88.0,ChIJqULfE--rQjQR2FA_90FPvQI,25.0579708,121.5502016
松山區,SPA,貳壹越式洗髮,105台灣臺北市松山區光復南路32巷16弄21號1樓,4.7,41.0,ChIJO03qMgCrQjQRrkLxAD8_QY4,25.045422499999997,121.55669119999999
松山區,SPA,c spa台北中山國中店,105台灣臺北市松山區復興北路361巷4號,4.8,88.0,ChIJL2Cj_uSrQjQROgJO4DIHi24,25.0603275,121.54526690000002
松山區,SPA,到府按摩/飯店按摩/預約/ LEO按摩/ 指壓/油壓/massage spa,105台灣臺北市松山區慶城街6-2號,4.9,67.0,ChIJMSh3nFRTXTQRhdg0V-A4X2A,25.0524459,121.54485799999999
松山區,SPA,Relax 33莊園【五感按摩】,10445台灣臺北市中山區中山北路二段2號11樓,4.8,5795.0,ChIJoxHb1FGpQjQR9FONN4wV0X0,25.0524101,121.5223062
松山區,SPA,馥妍流 H 會館,10575台灣臺北市松山區民生東路五段111號2樓,5.0,22.0,ChIJfV4tJGyrQjQRaOi2GMBze0s,25.058810899999997,121.5602223
松山區,SPA,花緹時尚會館-MyHuati,105台灣臺北市松山區南京東路四段186-1號,4.6,177.0,ChIJYUEw--qrQjQRorO0kC0b7Iw,25.0510597,121.5577218
松山區,SPA,泰瑞沙美容沙龍&足體健康Spa會館,105台灣臺北市松山區復興北路69號2樓,4.7,33.0,ChIJ4aKefnqrQjQRiJxIXkN94rM,25.050905699999998,121.5442303
松山區,SPA,健身足道養生館,105台灣臺北市松山區新東街11巷7號,4.6,43.0,ChIJ-3Dv_ZGrQjQRvDAC6srXCac,25.0582653,121.565772
松山區,SPA,喜都三溫暖,105台灣臺北市松山區南京東路五段38號號 B1,4.6,1141.0,ChIJ5fRs1uqrQjQRp4__-iwvbRU,25.051305,121.55941700000001
松山區,SPA,香柏木SPA莊園,106台灣臺北市大安區敦化南路一段329巷17號,4.6,411.0,ChIJFbjOqeyrQjQRvYjHu1xq5q8,25.0342618,121.5501341
松山區,SPA,超美女人234 M-SPA,105台灣臺北市松山區復興北路73號3樓之1,4.9,10.0,ChIJk1Pzvt2rQjQR-NHZgpRSAro,25.0510882,121.54435849999999
松山區,SPA,泰芝心泰式按摩健康舒壓養生spa（後山埤店）,11082台灣臺北市信義區忠孝東路五段781號,4.9,894.0,ChIJ9UVaOG2rQjQRyxWTX4o1-BA,25.0438521,121.581462
信義區,美甲,Butter Nail/信義區平價美甲/手足保養/指甲彩繪/捲甲矯正/灰指甲護理/按摩/穿戴甲/連鎖品牌/A13,110台灣臺北市信義區松仁路58號3樓,4.8,415.0,ChIJO7J4KByrQjQRwYXxnZf6KRU,25.036873699999997,121.5679503
信義區,美甲,Hsuan nail 台北信義區基隆路平價美甲 專業沙龍店首選 市政府站推薦 人氣光療指甲 漸層彩繪 卸甲 修腳 優質手部保養價格 足部護理 凝膠好評 韓系日系簡約 上班族優惠 小資族 單色 造型 高cp值便宜 dcard ptt 小紅書熱門雜誌款,110台灣臺北市信義區基隆路一段155號十四樓之7,4.9,82.0,ChIJAYJETfKrQjQRMZ9QKYugJqo,25.0421829,121.5654206
信義區,美甲,ONi美學（台北信義區後山埤美甲店/ 台北飄霧眉粉霧眉霧唇推薦/台北熱蠟除毛）,110台灣臺北市信義區忠孝東路五段743巷31弄6號,5.0,37.0,ChIJZaI08wyrQjQR2jtSQDcf034,25.044363999999998,121.58071199999999
信義區,美甲,UNIII BEAUTY 永春豪宅美甲｜美睫,110台灣臺北市信義區忠孝東路五段453號2樓之5,4.9,223.0,ChIJ6_MF5ayrQjQRAAc_sBEHzYw,25.041105,121.57634410000001
信義區,美甲,Lalaland nail Salon/美甲手足保養,11060台灣臺北市信義區忠孝東路五段372巷29弄13號,4.5,52.0,ChIJrQBnNkOrQjQRRwFJzUZBwFw,25.039042199999997,121.57438610000001
信義區,美甲,花茶美甲 C&D Nail House,110台灣臺北市信義區虎林街120巷181號,5.0,96.0,ChIJAWRZeEurQjQR3mpWVJhKT5A,25.0423042,121.5735981
信義區,美甲,Annnail.nail,110台灣臺北市信義區忠孝東路五段474號11樓5室,5.0,62.0,ChIJew0y6TyrQjQRq6i_38AHCZM,25.040673299999998,121.5770825
信義區,美甲,永春美甲 12% Nail studio信義區手足保養—手足凝膠,110台灣臺北市信義區松德路12號9樓,4.9,76.0,ChIJsQjn1tCrQjQRJskicykn5Cg,25.0396181,121.5774546
信義區,美甲,186美學館nail salon 美甲 熱蠟除毛 紋繡 半夜需提前預約,110台灣臺北市信義區基隆路一段186號11樓之1,4.8,70.0,ChIJ9YBKqHirQjQRiHrn7ksRCpM,25.042080000000002,121.5647486
信義區,美甲,tippy 貼比 穿戴式美甲 新光A8店,"B1, No. 12號松高路信義區臺北市台灣 110",5.0,23.0,ChIJCydIpmqrQjQRSXzxVi2AfLA,25.0383005,121.566783
信義區,美甲,DASH nail｜光療美甲•凝膠｜信義｜永春,110台灣臺北市信義區忠孝東路五段474號10樓-1,5.0,7.0,ChIJy3y62FqrQjQRA6KtRV1Vp3Y,25.040639,121.57717999999998
信義區,美甲,13star精緻美學館,110台灣臺北市信義區永吉路203號,4.9,131.0,ChIJM887oaarQjQR0gtyKLCvkJQ,25.0457692,121.57362549999999
信義區,美甲,ICON NAIL 美甲,110台灣臺北市信義區永吉路30巷119弄21號,5.0,41.0,ChIJ-_5j57yrQjQR_RrSv7YfMWU,25.0432068,121.56979570000001
信義區,美甲,甲舍.假設美甲-信義市政府店,110台灣臺北市信義區忠孝東路五段1號7樓,5.0,41.0,ChIJeS4Yt7-rQjQRUtKQ0MKpBAc,25.041320900000002,121.5648909
信義區,美甲,MIST NAIL ART,"1樓, No. 42號基隆路一段147巷5弄信義區臺北市台灣 110054",5.0,42.0,ChIJ35fGhGarQjQRybE_U44JSHk,25.0428498,121.5664078
信義區,美甲,F/A TAIPEI City Hall “Eyelash/Nails/Facial/Waxing”,110台灣臺北市信義區忠孝東路四段553巷22弄8-1號,4.9,639.0,ChIJszNdikurQjQRGeZRHRroXE8,25.0431533,121.56347090000001
信義區,美甲,Mia nails 凝膠美甲/手足保養/信義區,110台灣臺北市信義區莊敬路391巷1弄2號一樓,4.9,39.0,ChIJTdq285upQjQRi82un5-VSqA,25.028019200000003,121.56557339999999
信義區,美甲,Crystal葵斯朵 美甲美學概念館,110台灣臺北市信義區吳興街345巷4號1樓,4.9,112.0,ChIJ52Ra4rWrQjQRYF_r3Me0Twg,25.0268801,121.5663141
信義區,美甲,質甲工作室-台北凍甲處理|信義熱門美甲|平價美甲|手繪美甲|快速光療|足部光療|推薦美甲|美甲工作室,110台灣臺北市信義區基隆路一段141號5號樓之3,5.0,21.0,ChIJZVH96hKrQjQR02ExiU6w5Rg,25.0429861,121.5659519
信義區,美甲,Daan Salon 大安美睫美甲,106台灣台北市大安区信义路四段6號11樓 之 1,5.0,735.0,ChIJK7S7hPurQjQRMwkwo13GqTk,25.0331254,121.54401289999998
信義區,美甲,Veve Colorsnail STUDIO,110台灣臺北市信義區松山路421號4號樓之8,5.0,145.0,ChIJTVBUzQGrQjQRBxgybY3AfJg,25.040577199999998,121.57805369999998
信義區,美甲,Midori nails 彌朵莉貓窩美甲室,110台灣臺北市信義區大道路65巷12號1樓,4.9,79.0,ChIJBY7OEz-rQjQRnjfCcD5xhRs,25.041364100000003,121.5829246
信義區,美甲,KING‘s BEAUTY,110台灣臺北市信義區基隆路一段149號2樓之3,5.0,137.0,ChIJp7gEf1urQjQRLxQPS_ENQQA,25.0424801,121.56551110000001
信義區,美甲,喬莉專業美甲,11042台灣臺北市信義區吳興街213號,4.7,49.0,ChIJtUY5ZEOrQjQR1wYgeb7hUJU,25.0280769,121.56293649999999
信義區,美甲,妃閣美學 - 台北店（美甲/美睫/紋綉）,110台灣臺北市信義區忠孝東路五段71巷11弄11號2樓,5.0,39.0,ChIJLZD1pnSrQjQRwSkwcRy9148,25.042014400000003,121.56788549999999
信義區,美甲,Coslovery 樂芙麗沙龍 x OhMyTineNails,110台灣臺北市信義區光復南路417巷57號1樓,5.0,154.0,ChIJoSchis-rQjQRikhP1nVTdTk,25.0368872,121.55834290000001
信義區,美甲,美美指甲,110台灣臺北市信義區忠孝東路五段372巷27弄77之1號,4.7,28.0,ChIJ0U_04CyrQjQRyuwl5IXBBeo,25.0398019,121.57639599999999
信義區,美甲,麗妃沙龍 Refined Beauty Salon,"忠孝東路五段236巷3弄31號, 1樓 旁車道左轉, No. 358號忠孝東路五段信義區臺北市台灣 110",4.7,156.0,ChIJJexg0KSrQjQR3R6z9h7DDBA,25.0404862,121.57360829999998
信義區,美甲,凱綸Karen's指甲莊園 x Hohohonails 聯名店 (原名凱婷),110台灣臺北市信義區忠孝東路五段358號2F,4.8,61.0,ChIJDU8y0MWrQjQReTaJGfmpzpU,25.040730999999997,121.57350699999999
信義區,美甲,Lalaland nail Salon/美甲 手足保養,110054台灣臺北市信義區光復南路415巷99號,4.8,149.0,ChIJTYBoOwCrQjQRC3in6pOOhYM,25.037200199999997,121.55880699999999
信義區,美甲,Winnie全方位美學,"1樓, No. 163號基隆路一段信義區臺北市台灣 110",4.8,221.0,ChIJhf2ZEwmpQjQRMUV242GepOc,25.0418679,121.5651516
信義區,美甲,Nail Nail信義安和店,106231台灣臺北市大安區信義路四段265巷24號,4.8,113.0,ChIJ741PB_6rQjQRn2i_upnmbhU,25.034572299999997,121.55466440000001
信義區,美甲,nails 愉人,110台灣臺北市信義區松德路180巷8-1號,4.8,34.0,ChIJXzHdcKWrQjQRuFtoQnqPeqU,25.035568299999998,121.57367179999999
信義區,美甲,Annie美甲工作室,110台灣臺北市信義區永吉路32號9號惠安永吉大樓樓之三,5.0,2.0,ChIJeU0jz5erQjQRrWWHwWs6PdE,25.045557499999997,121.5688898
信義區,美甲,Timing Nail 專業美甲沙龍,110台灣台北市信义区和平东路三段391巷9號1樓後段,4.5,42.0,ChIJBSFaY8-rQjQR2NDeA1ehNzM,25.0200762,121.55817760000001
信義區,美甲,JOJO NAIL SALON,110台灣臺北市信義區忠孝東路五段71巷11弄11號捷運市政府站4號出口,4.9,177.0,ChIJcwP7abyrQjQRA1CTL6obdm0,25.042009,121.5678838
信義區,美甲,Tokyo Tiara 緹瑞拉日式美甲美睫專業沙龍,110台灣台北市信义区忠孝東路五段19號5樓,4.7,306.0,ChIJoR-Y1sSrQjQR7Pkp2zfbwaw,25.041356699999998,121.5656569
信義區,美甲,Huynh anh nail美甲美睫,110台灣臺北市信義區吳興街50巷1號1樓,4.6,22.0,ChIJOat_Xs2rQjQRZSaF_WQvaLM,25.031008,121.5600566
信義區,美甲,Connie Chiwa 指藝畫室(nails studio),110台灣臺北市信義區忠孝東路五段31巷18弄31號二樓,5.0,20.0,ChIJw4N0gyqrQjQRxMxOkU_Wjgw,25.0417064,121.5667638
信義區,美甲,楓•MAPLE 美甲｜美睫｜綜合美學Beauty Salon,110台灣臺北市信義區虎林街104巷140弄5號1樓,5.0,9.0,ChIJqwSLEpqrQjQRHqLRNbfSbUw,25.042611899999997,121.57405759999999
信義區,美甲,修修甲,"1樓, No. 13號永吉路278巷信義區臺北市台灣 110",5.0,7.0,ChIJN_KA6_OrQjQRJd5SylreuLk,25.044887799999998,121.57429820000002
信義區,美甲,維克美甲工作室 Vic's Beauty Nail Studio,110台灣臺北市信義區忠孝東路五段47號2樓,5.0,41.0,ChIJ0_rYM54BaDQRFT9ntteZ1Bs,25.041432,121.566334
信義區,美甲,S’aimer 仙迷美學市政府店｜美甲·美睫·紋繡,110台灣臺北市信義區忠孝東路五段71巷12弄21號1樓,5.0,1.0,ChIJDaOHB0-rQjQRIFA9gk_Ny7I,25.042101300000002,121.5663105
信義區,美甲,Tina美容美甲,110台灣臺北市信義區中坡南路152號1樓之2,4.6,7.0,ChIJZSMDqLWrQjQR_F8SGrredJw,25.039944499999997,121.58441099999997
信義區,美甲,𝑩𝑴 𝑵𝒂𝒊𝒍 𝑨𝒓𝒕 美甲工作室 | 六張犁美甲 | 信義區美甲 | 台北美甲,11053台灣臺北市信義區基隆路二段145號,5.0,24.0,ChIJP-CfCTqrQjQR2_jMdiTslek,25.026979200000003,121.555762
信義區,美甲,Luna美學中心-嫁接日式韓式美睫 3D6D山茶花仿真睫毛 彩繪凝膠光療美甲 好評預約 粉飄霧眉 妝感韓式仿真眉男士霧眉 紋隱形眼線美瞳線 紋霧唇 嘟嘟唇 費用 韓式皮膚管理 痘痘肌做臉 臉部換季保養 PTT Dcard,110台灣台北市信义区忠孝东路五段372巷27弄96號1樓,4.9,159.0,ChIJr16N84irQjQR9_b6x7vxAeA,25.039445999999998,121.57634399999999
信義區,美甲,舒曼美甲美睫,110台灣臺北市信義區信義路六段126-27號,5.0,16.0,ChIJGY0XD7mrQjQR5vO-NaYF1-I,25.0359239,121.578282
信義區,美甲,Re.nail美甲藝術工坊（休假請見IG、不接現場客、預約請按line連結）,110台灣臺北市信義區基隆路二段201號,5.0,99.0,ChIJSZLKR3OrQjQRM7YKn4-GCSk,25.0245003,121.5531007
信義區,美甲,JL's LAB,110台灣臺北市信義區莊敬路391巷1弄2號1樓,4.7,42.0,ChIJufaQCDurQjQRvEy-aj7icmQ,25.028019200000003,121.56557339999999
信義區,美甲,Miya Nail 美甲工作室,11051台灣臺北市信義區基隆路一段380巷30號1樓,5.0,10.0,ChIJl5_riWirQjQRq2ETXvp0OmU,25.0345354,121.558521
信義區,美甲,亭廷美甲保養,110台灣臺北市信義區吳興街500巷2號,4.6,37.0,ChIJ2_3-QSyrQjQRgopahTiasiI,25.0231115,121.5694326
信義區,美甲,Confidence 自信美學指尖藝術,110台灣臺北市信義區松山路312-1號A室,5.0,38.0,ChIJN5-CvpGrQjQRH-bWgR4I5XY,25.042513,121.57762319999998
信義區,美甲,彩銜時尚美甲美睫坊,110台灣臺北市信義區松山路307號,4.4,46.0,ChIJXU3nIqKrQjQRIlKURPqbnp0,25.042561,121.578058
信義區,美甲,阿金越南時尚美甲,110台灣臺北市信義區虎林街82巷36號,4.7,60.0,ChIJD33tR5OrQjQRXrk71IMGmmg,25.0432444,121.5763719
信義區,美睫,The Lash芮睫美學｜美睫｜霧眉｜教學課程,"1樓 No, No. 42號基隆路一段147巷5弄信義區臺北市台灣 110",4.9,96.0,ChIJS-wxjGmrQjQREndSjzD8LY8,25.0427921,121.566363
信義區,美睫,星室 LES ETOILES SALON┊日式美睫┊日式束塾┊睫毛管理┊霧眉霧唇┊眉唇淡色,110台灣臺北市信義區莊敬路238號2樓,5.0,234.0,ChIJiUJJ_wSrQjQRHR0WT6TNjFs,25.0295483,121.56209380000001
信義區,美睫,小姐睫睫毛工作室,110台灣臺北市信義區松隆路32號,5.0,94.0,ChIJmZoQe4GrQjQRwUhdEG3IYGs,25.043093799999998,121.567537
信義區,美睫,睫姊眉妹 ｜ 紋繡美睫専門店｜男士霧眉設計、新秘彩妝設計,110台灣臺北市信義區忠孝東路五段71巷3弄15號1樓,5.0,97.0,ChIJlYMtg9ipQjQRpyXUIzS-FEs,25.0416476,121.56795570000001
信義區,美睫,接睫毛日式韓式接睫毛專門店,110台灣台北市信义区基隆路一段186號1樓,5.0,102.0,ChIJZw46lW6pQjQRV9nVq3atbY0,25.042192,121.56465600000001
信義區,美睫,熙又國際美學 Seeing Beauty｜信義區霧眉、除毛、課程教學專業服務。由10年經驗老師親自操作，提供自然柔霧眉、肌膚管理、除毛等服務，讓妳從眉型到膚質都展現自信氣質。,110048台灣台北市信义区松山路140號官方Line預約2樓 二樓：@seeyoume,5.0,170.0,ChIJVaT03mqrQjQR0d3lv43NDxc,25.047172,121.5775065
信義區,美睫,CILUNA Eyelash Salon,110台灣臺北市信義區信義路四段98號6樓之二,5.0,44.0,ChIJeQeneearQjQR4JHqm6G3ZDw,25.033006999999998,121.54794500000001
信義區,美睫,東森自然美 信義崇德店,110台灣臺北市信義區崇德街38巷18號,5.0,202.0,ChIJvXXAKLWrQjQRGWwxNOE0YEc,25.0235807,121.55414950000001
信義區,美睫,Deerlash信義店 美睫 男女除毛LashExtension/Waxing,110台灣臺北市信義區忠孝東路五段63號4樓,4.9,32.0,ChIJm9Qb9wirQjQRgKzeqUcw9Fg,25.0413049,121.56669359999998
信義區,美睫,METOO美業共享空間,110台灣臺北市信義區莊敬路391巷3弄15號1樓,4.9,50.0,ChIJvysZxfqrQjQRDLmzNXYnhpM,25.0284656,121.564973
信義區,美睫,Mei_nail&lash-studio beauty美甲/美睫/角蛋白,110台灣臺北市信義區忠孝東路五段236巷3弄35號1,5.0,42.0,ChIJL4Aev2irQjQResZFY1gqHSM,25.040533399999997,121.5738582
信義區,美睫,Mobis手工霧眉工作室,110台灣臺北市信義區福德街82號2樓,5.0,117.0,ChIJHRdm8iirQjQRszlIl6fCKVY,25.0372022,121.5813753
信義區,美睫,《Ariel微妝美學》台北信義區無痛清粉刺｜痘痘做臉｜藻針喚膚｜無痛除毛｜美容做臉｜霧眉｜液態皮秒喚膚｜痘痘肌護理｜無重力吸粉刺｜睫毛嫁接,110台灣臺北市信義區中坡北路37巷4-1號一樓,5.0,198.0,ChIJBV6APp-rQjQR6X2RV6M164c,25.0459365,121.58030119999998
信義區,美睫,Annie Eyelash日式美睫工作室,110台灣臺北市信義區光復南路419巷110號,5.0,10.0,ChIJ1QdTPRurQjQRcb5-VpuJ054,25.036400399999998,121.5596806
信義區,美睫,Amz專屬美學,110台灣臺北市信義區松山路455號2樓,4.9,88.0,ChIJfVSBRqGrQjQRanUv1YhHw-k,25.0398997,121.5780489
信義區,美睫,ALASH,110台灣臺北市信義區基隆路一段380巷18號,4.9,120.0,ChIJz1ke-tWrQjQRYjymjDpWqq8,25.034733,121.55907699999999
信義區,美睫,美甲瞳話 信義店 LED光固美睫.美甲.美體,11076台灣臺北市信義區松德路15號1樓,5.0,7.0,ChIJBdMdVqOrQjQRk-ZRjyA0hYA,25.039168,121.577586
信義區,美睫,Momi Lash日式美睫,110台灣臺北市信義區莊敬路391巷3弄15號,,,ChIJk9YjE0irQjQRlvvnk3cVXOQ,25.0284656,121.564973
信義區,美睫,Vian薇安時尚美學館/山茶花美睫/韓式霧眉/台北市政府捷運,110台灣臺北市信義區忠孝東路五段1-5號9樓,5.0,14.0,ChIJNe4lSJ6rQjQRr5JyBt0SLjs,25.041522,121.564994
信義區,美睫,娜比美睫｜Nabi Eyeloved｜接睫毛 種睫毛 睫毛,11076台灣臺北市信義區松德路6號3樓3室,5.0,59.0,ChIJBwfGGlKrQjQRT0uZF4np0dI,25.0395585,121.57751359999999
信義區,美睫,Hannah,110台灣台北市信义区基隆路一段155號8樓之6,5.0,103.0,ChIJH1iZDcWrQjQRVgJ4NrJlFOk,25.0422742,121.56547039999998
信義區,美睫,GLOW Beauty Extension 美睫.紋繡,110台灣臺北市信義區忠孝東路五段368號2樓,5.0,69.0,ChIJ07I79SarQjQRPxgrP4okkJg,25.040716999999997,121.57389099999999
信義區,美睫,Marico Salon日式接睫毛｜美甲｜美齒｜美睫教學マツエク/アイラッシュ/日本式,10688台灣台北市大安区仁爱路四段345巷4弄9號1樓,5.0,258.0,ChIJiXqihc-rQjQRgxb7injz6Zs,25.0390394,121.5534442
信義區,美睫,秘密花園,110台灣臺北市信義區忠孝東路五段295巷6弄27號,4.8,56.0,ChIJjVnMCKOrQjQRdskJdMRt9I4,25.041936699999997,121.5738702
信義區,美睫,Pinpinの美睫生活,"3樓, No. 442號忠孝東路五段信義區臺北市台灣 11061",5.0,32.0,ChIJXTSphBqrQjQRI_1joHuE7Fg,25.040678,121.57602000000001
信義區,美睫,心波．Simple Beauty ∥台北美睫撥筋,110台灣台北市信义区基隆路一段147巷5弄3號2樓,5.0,34.0,ChIJyUzXNE-rQjQRCIc4yuMCAvA,25.042642500000003,121.56604329999999
信義區,美睫,LULU•EYELASH專業持久美睫STUDIO｜台北東區美睫｜接到滿｜大安信義接睫毛,106台灣臺北市大安區光復南路240巷23號3樓,5.0,72.0,ChIJxY23SnSrQjQRWd_oQsj0LnM,25.0406305,121.55651339999999
信義區,美睫,JOY張淑容形象設計｜美睫．美甲．紋繡．護膚,106台灣臺北市大安區忠孝東路四段55號7樓,5.0,114.0,ChIJY8SufnmrQjQRBSxUNT53jj4,25.0417788,121.54557729999998
信義區,美睫,candy美甲美睫,110台灣臺北市信義區虎林街52號,4.4,12.0,ChIJ36QczZirQjQRf-Li2prYKTo,25.0466521,121.57684529999999
信義區,美睫,Liz精緻手作美學,110台灣臺北市信義區忠孝東路五段31巷18弄39號,5.0,9.0,ChIJPR_IGBKrQjQR3Jd4XGOJn0E,25.0416689,121.5670213
信義區,美睫,Rui Rui 芮芮｜美睫 · 美甲 · 霧眉 · 熱蠟除毛．美容保養 | 工作室（門牌1301）,110台灣臺北市信義區忠孝東路五段1-1號13樓,4.9,21.0,ChIJmSCfiCCrQjQRH9EvfDKe4d0,25.041382,121.56489630000002
信義區,美睫,後山埤 薰衣草美甲｜美睫沙龍,110台灣臺北市信義區中坡南路134號,4.8,37.0,ChIJJ76rPi6rQjQRsBZahxRBoDA,25.0405093,121.58460040000001
信義區,美睫,伊菲整體藝術美甲,110台灣臺北市信義區忠孝東路五段19號11樓,4.8,90.0,ChIJRQkflwmpQjQRGwIYFmg65qI,25.041233500000004,121.56567100000001
信義區,美睫,DREAM L. 美睫 半永久紋繡（原ChuChu Beauty）,106台灣臺北市大安區忠孝東路四段233號3樓之七,5.0,45.0,ChIJ6SDntGSrQjQR_XAFRvxhROI,25.0416805,121.55346619999999
信義區,髮廊,Wor hair 信義店 染髮1500不分長度/台北信義染髮推薦/台北信義剪髮推薦/台北信義燙髮推薦/台北信義護髮推薦/信義設計師推薦/信義髮廊推薦/信義優惠染髮/信義網紅推薦/信義美髮推薦/信義洗頭推薦,110台灣臺北市信義區莊敬路321號2樓,4.9,1533.0,ChIJT9GZDuyrQjQRQpJBpgqzb4k,25.028216999999998,121.563565
信義區,髮廊,CRE.a Hair Salon,110台灣臺北市信義區基隆路一段147巷52號,4.9,1823.0,ChIJI9hmZbyrQjQR61zGYL7tqfU,25.042276299999997,121.5677494
信義區,髮廊,Eros hair-styling,110台灣臺北市信義區松仁路28號305室,4.7,1669.0,ChIJQaA19cSrQjQRLeD4dxf5oz0,25.0396219,121.56764100000001
信義區,髮廊,Radix Hair Design 台北信義區髮廊 美髮店、髮型設計、理髮/剪髮、染燙護髮/頭皮養護,110台灣臺北市信義區光復南路473巷13弄3號,4.9,156.0,ChIJWYXklMmrQjQR43AVYcErDDw,25.034326999999998,121.5582971
信義區,髮廊,MILOS SALON美髮沙龍,110台灣臺北市信義區信義路五段150巷411弄16號,4.8,143.0,ChIJKVpbW02qQjQRmjMfFC7XsAk,25.0239375,121.57053549999999
信義區,髮廊,好 HAIR SALON,110台灣臺北市信義區忠孝東路四段553巷46弄5號,4.8,501.0,ChIJo3j8pyqrQjQRo2LYg3Pl32A,25.044320799999998,121.56313109999998
信義區,髮廊,Big nose hair salon-台北信義髮廊 剪髮/燙髮/染髮/護髮/頭皮護理SPA 美髮/沙龍 縮毛矯正/溫熱塑燙/水波紋 漂染/挑染/特殊色染/歐美手刷染 2026髮型設計 捷運藍線/國父紀念館站髮廊 PTT Dcard,110台灣臺北市信義區光復南路421巷6號1樓,5.0,302.0,ChIJn5GYTROrQjQR_PsmGAlexPw,25.0361551,121.5583517
信義區,髮廊,S HAIR STYLE/信義髮廊首選/洗髮/剪髮/燙髮/染髮/護髮/頭皮養護/接髮,110台灣台北市信义区忠孝东路五段790巷24弄18號1樓,4.8,786.0,ChIJ-WYDDaCrQjQRjwO59XhqakQ,25.042120900000004,121.58219
信義區,髮廊,Karenstar Hair Salon,110台灣臺北市信義區松勤街43號,4.9,349.0,ChIJZ0Z1gbarQjQR2gaK5gmiSdY,25.032181899999998,121.5629669
信義區,髮廊,Round2 Hair Salon 松菸店,110台灣臺北市信義區忠孝東路四段559巷51號,4.9,1899.0,ChIJ24TCX2erQjQRmK5gMJNqAUE,25.043805,121.56360099999999
信義區,髮廊,Top Hair Design,110台灣臺北市信義區基隆路一段147巷11號,4.8,407.0,ChIJ9T_ifLyrQjQR7lEi3TLCgxs,25.042502499999998,121.5663473
信義區,髮廊,日日美髮廊,110台灣臺北市信義區忠孝東路五段71巷3弄7號,4.7,214.0,ChIJ9QMueLyrQjQRL1W6A-eL6u0,25.0416893,121.5676873
信義區,髮廊,MINGLIU Hair Salon 名留髮型市府店 | 專業剪髮 | 水感燙髮 | 質感染髮 | 激蛋白護髮 | 市府捷運站 | 信義區人氣髮廊,110台灣臺北市信義區忠孝東路五段39號,4.5,509.0,ChIJT2yKVbmrQjQRSCg7RQMraQY,25.041515600000004,121.5661327
信義區,髮廊,FOUR HAIR 質感精緻髮廊,"No.7,Aly.3,Ln.236,Sec.5,Zhongxiao East Road, No. 7號忠孝東路五段236巷3弄信義區臺北市台灣 110",4.8,325.0,ChIJG3cPCs-rQjQR3ujx6x1o-28,25.040512999999997,121.572446
信義區,髮廊,HAPPYHAIR 台北市府店,110台灣臺北市信義區逸仙路42巷27號,4.7,474.0,ChIJvxjXGrmrQjQR0DrCbeZ9sqg,25.0404797,121.56325989999999
信義區,髮廊,MeeJapan台北信義店,110台灣臺北市信義區基隆路一段167號1樓,4.6,295.0,ChIJESKWhnKrQjQRp-e4RWHWkD0,25.041688000000004,121.565232
信義區,髮廊,Elephant salon.barber,110台灣臺北市信義區忠孝東路五段71巷11弄20號,4.8,100.0,ChIJq2vD88CrQjQR3N16vFi3x2A,25.0418545,121.56791799999998
信義區,髮廊,Studio 13 hair salon｜信義區髮廊｜剪髮｜染髮｜頭皮養護｜縮毛矯正｜白髮共存,110台灣臺北市信義區松山路465巷2弄18號,5.0,193.0,ChIJlZQrh8WrQjQRnDrXr-wOeHk,25.038946,121.578313
信義區,髮廊,Aveda Rugged Men Salon 男士理髮,110台灣臺北市信義區松壽路9號3 樓,4.9,256.0,ChIJxz_HK4urQjQROm4eA34nkpw,25.0360667,121.5667543
信義區,髮廊,"CHILL In Hair Boutique 健髮諮詢, 頭皮養護, 燙, 染, 剪, 護",110台灣臺北市信義區永吉路30巷119弄7號1樓,5.0,127.0,ChIJVS-V7fWrQjQRznBinAYn65c,25.043235199999998,121.5692364
信義區,髮廊,The SLOW慢慢Salon,110台灣臺北市信義區松山路555號,4.8,436.0,ChIJ3a7S7KarQjQRlTrUZCgtQ7I,25.037188999999998,121.578386
信義區,髮廊,A'mour Hair Salon 信義店,106台灣臺北市大安區信義路四段294巷7-1號2樓,4.9,734.0,ChIJ59ZRFNarQjQR4o80lktH8UA,25.032600199999997,121.5543977
信義區,髮廊,MIRROR HAIR 市府店,110台灣臺北市信義區永吉路30巷158弄14號1樓,4.8,166.0,ChIJrUUKREarQjQRsKMP3spopnY,25.042207800000003,121.56816540000001
信義區,髮廊,onze hair salon,110台灣臺北市信義區忠孝東路五段71巷12弄7號,4.7,120.0,ChIJy0Rtqr6rQjQR4yU0YpHzAuM,25.042119399999997,121.56682499999998
信義區,髮廊,BJ salon-台北莊敬剪髮/頭皮調理/燙髮/染髮/護髮,110台灣臺北市信義區莊敬路266號,4.7,114.0,ChIJ971G_rSrQjQRHXniOZIPoMs,25.029053899999997,121.56249659999997
信義區,髮廊,Eddie at Boutique Hair,"10 Floor No, No. 19忠孝東路五段信義區臺北市台灣 110",4.7,233.0,ChIJCxzSgdqrQjQRPfuOGr5oMP4,25.041356699999998,121.5656569
信義區,髮廊,槿樹空間沙龍Hibiscus Hair Salon,110台灣臺北市信義區松山路300號,4.8,222.0,ChIJbQrlc8KrQjQRNnQZV797M5Q,25.042797,121.57760999999998
信義區,髮廊,King髮藝,110台灣臺北市信義區忠孝東路五段790巷15號,5.0,93.0,ChIJE9N91nurQjQR4zrqSimfvl4,25.043089,121.582072
信義區,髮廊,Hair Plus創意沙龍,110台灣臺北市信義區虎林街132巷16號,4.7,294.0,ChIJSSvM5aOrQjQRtHvCL0NmCVY,25.040367900000003,121.57638679999998
信義區,髮廊,ANNIES HAIR 台北信義髮廊 剪髮 染髮 燙髮 護髮 頭皮護理,110台灣臺北市信義區忠孝東路五段71巷11弄3號1樓,4.6,88.0,ChIJFy2Z6gyrQjQRkinIAM0nPc8,25.042035300000002,121.5676011
信義區,髮廊,One Hand Made Barber 一手製造,110台灣臺北市信義區忠孝東路五段165巷3弄21號1樓,5.0,2249.0,ChIJQ0ymmbyrQjQR_QFHLjzKn1Q,25.0416461,121.5696042
信義區,髮廊,BEN.86 Hairstyle Studio,110台灣臺北市信義區虎林街82巷13號,4.9,107.0,ChIJgQA2K1gcwKQRXZOh8EecxcY,25.043431899999998,121.57662589999998
信義區,髮廊,想髮造型美學IDEAS hair salon-剪髮推薦 (台北信義永春)專業染髮 燙髮 結構護髮 接髮推薦 線條光線染 手刷染,110台灣臺北市信義區松德路72號,4.9,234.0,ChIJjXa3FaSrQjQRdBCec4EtiFA,25.0383198,121.5758594
信義區,髮廊,BIBA Salon Taiwan,"11073台灣臺北市信義區光復南路lane 415號, 38",4.7,250.0,ChIJ3xnfacirQjQRNwGvogyGPks,25.037072499999997,121.55806120000001
信義區,髮廊,Holly Hair 信義店 台北 信義區 推薦髮廊 剪髮 燙髮 染髮 髮根燙 挑染 設計染,110台灣台北市信义区松山路275之3號1樓,5.0,105.0,ChIJsT5vegKrQjQR8uUXGdgwPkI,25.043279899999998,121.57803599999998
信義區,髮廊,Wor hair永春店 燙或染均一價1500不分長度含洗加剪 永春染髮/永春燙髮/永春剪髮/永春洗髮/永春美髮/永春髮廊/信義燙髮/信義染髮/信義剪髮/信義美髮/信義洗髮/信義髮廊,11061台灣臺北市信義區忠孝東路五段430號2樓,4.8,121.0,ChIJv0QMHb-rQjQRrXRIcAZwIlw,25.040684,121.57568099999999
信義區,髮廊,SHOW E,"號 No, No. 11虎林街132巷信義區臺北市台灣 110",4.8,231.0,ChIJ1SH55KOrQjQRla647PAoj28,25.0402379,121.57643800000001
信義區,髮廊,FaceColor斐絲染護髮專門店 永春店,110台灣台北市信义区忠孝东路五段372巷27弄77號1F,4.8,470.0,ChIJbY7ANeurQjQRSsJaZttyBAY,25.040021000000003,121.5764658
信義區,髮廊,FaceColor斐絲染護髮專門店 信義松山店,110台灣台北市信义区松山路572號1樓,4.7,631.0,ChIJX34EbqOrQjQR5Mx5hGTMtqs,25.037146999999997,121.57821159999997
信義區,髮廊,Goodhair salon好髮型,110台灣臺北市信義區松德路72-1號,5.0,98.0,ChIJO06fHxurQjQR26XnZPGpGLU,25.038387,121.575786
信義區,髮廊,ROZO SALON,110台灣臺北市信義區永吉路30巷119弄10號一樓,4.7,107.0,ChIJnbORqM2rQjQRM9H7YFDARPQ,25.043024,121.5689955
信義區,髮廊,INJOY hair,110台灣臺北市信義區虎林街164巷52號,5.0,31.0,ChIJC3HBRKSrQjQRgD_9lGaVRPk,25.038137300000002,121.5750736
信義區,髮廊,夏梵娜美髮沙龍 信義店,110台灣台北市信义区松山路259-1號 號259-1號 號,5.0,62.0,ChIJoQml5qGrQjQRC885FUPcj1c,25.0439652,121.57806120000001
信義區,髮廊,勝悅髮型頭皮養護館 捷克店,110台灣臺北市信義區松德路41號,4.9,448.0,ChIJz9zwq6arQjQRy0OTAI-PbvQ,25.038949,121.577287
信義區,髮廊,Win Hair Salon 彩妝 接髮 （信義店）,110台灣臺北市信義區永吉路30巷148弄8號一樓,5.0,40.0,ChIJ22A2z7yrQjQRJVc2BWxeYOU,25.042624,121.568386
信義區,髮廊,space h. 市府店,110台灣台北市信义区永吉路30巷148弄19號1樓,4.9,891.0,ChIJYSj8APCrQjQRVx_FDUwLg8k,25.042807699999997,121.56793449999998
信義區,髮廊,L髮苑,110台灣臺北市信義區永吉路30巷102弄12號1樓,5.0,81.0,ChIJpelwmTCrQjQRQttqCkL4xR0,25.0436827,121.5683659
信義區,髮廊,優芙髮廊 UFO Hair Salon,110台灣臺北市信義區基隆路一段147巷23號1樓,4.8,172.0,ChIJBwbm_rurQjQRmxU1yFS27UQ,25.042472999999998,121.5667768
信義區,髮廊,勝悅髮型頭皮養護館 北海道店,110台灣臺北市信義區忠孝東路五段386號2樓,4.8,216.0,ChIJ7cSxHaWrQjQRDyPPTXkrzEw,25.0407588,121.57410200000001
信義區,髮廊,髮集市造型名店,110台灣臺北市信義區松德路17號,4.8,103.0,ChIJw1kwraarQjQRMC7OSGPAC8s,25.039136,121.577547
信義區,髮廊,One day hair salon,110台灣臺北市信義區忠孝東路五段423巷72號,4.6,65.0,ChIJyxuq9fKrQjQRkUoHAHlLxO0,25.043637699999998,121.57549629999998
信義區,髮廊,LISA Hair Salon 日本 Monnali 生髮中心專用頭皮養護 為專業沙龍提供高性能頭 皮抗衰老 日本唯一的生髮沙龍®BIDAN 指定 頭皮護髮專用產品.,110台灣臺北市信義區莊敬路400號1 樓,4.2,132.0,ChIJKwBKXrOrQjQR8TKZ0CU2CEI,25.027283000000004,121.56574300000001
信義區,髮廊,小林髮廊世貿店（洗髮無預約）,110台灣臺北市信義區基隆路二段19號2樓,4.6,249.0,ChIJqxRqDsqrQjQR3TBcUSqnnvY,25.0321005,121.55926280000001
信義區,髮廊,HAPPYHAIR 台北永吉店,110台灣台北市信义区永吉路30巷85號1~2樓,4.8,441.0,ChIJKxdvAr2rQjQR7nU6z8AsOdw,25.0439282,121.5688727
信義區,髮廊,松仁專業平價剪染護中心,110台灣臺北市信義區松仁路257號,4.8,225.0,ChIJUXlnUMKrQjQRvPkBehUBPnc,25.025347,121.569308
信義區,髮廊,肯夢AVEDA 信義微風,"3樓, No. 68號忠孝東路五段信義區臺北市台灣 110",4.1,142.0,ChIJ1wduk7urQjQRYgipwNpJ8rs,25.0406193,121.56702149999998
信義區,髮廊,超型男髮藝,110台灣臺北市信義區虎林街212巷15號,4.8,148.0,ChIJHUUxW3WrQjQR8AMq30bXiA0,25.037407899999998,121.5767522
信義區,髮廊,嘎頭Mo,110台灣臺北市信義區虎林街108巷10號,4.9,112.0,ChIJlShcGN-pQjQReU1GQfVbt5Y,25.042432899999998,121.5765156
信義區,婚紗,Korean Artiz Studio,110台灣臺北市信義區信義路五段2號震旦國際大樓1F，2F。 預約制服務，來店請提前預約,4.9,4082.0,ChIJs2H6a8erQjQRQ9dxgsWos9M,25.0327746,121.55979329999998
信義區,婚紗,勾勾婚禮,11065台灣臺北市信義區永吉路30巷119弄44號,4.7,73.0,ChIJSWiajOmrQjQRyqXPBjIgghs,25.043031499999998,121.57004099999997
信義區,婚紗,AppleFace臉紅紅海外婚紗婚禮/自助婚紗/婚攝/婚禮紀錄/孕婦寫真/親子全家福寫真,106台灣臺北市大安區信義路四段38號4樓,4.9,204.0,ChIJO-F4h3YCaDQR4BUrsmnUcIM,25.033196699999998,121.54484090000001
信義區,婚紗,Tiamo Photography,110台灣臺北市信義區忠孝東路四段500號10F-1,5.0,35.0,ChIJly5J7rirQjQRhLDRKXd3SxM,25.0409442,121.5618999
信義區,婚紗,煦願婚禮顧問 ｜台北婚禮顧問/台北婚禮主持/台北婚禮佈置/台北寶寶抓周 /台北美式場地推廣/求婚活動,110台灣臺北市信義區忠孝東路四段563號11樓,5.0,108.0,ChIJ5fXqaXGrQjQRumOFZVZyJ5E,25.0415645,121.564152
信義區,婚紗,薇薇新娘婚紗,100台灣台北市中正区忠孝西路一段80號R樓,4.9,2106.0,ChIJTR14h0SpQjQR2XGPF4CFeIA,25.046944399999997,121.51378819999998
信義區,婚紗,囍家手工禮服 媽媽禮服/男士西服❤️採預約制❤️,110台灣臺北市信義區忠孝東路五段71巷11弄21號,5.0,121.0,ChIJ_TfDrbKpQjQRZZKMZwOy92U,25.0420099,121.5682769
信義區,婚紗,木唯攝影｜婚攝木瓜,110台灣臺北市信義區忠孝東路五段743巷21弄15號,4.7,14.0,ChIJUzxK9aurQjQRvNtEBwJZ00Q,25.04374,121.580457
信義區,婚紗,藏愛婚紗攝影,106台灣臺北市大安區安和路二段五號2樓,4.9,867.0,ChIJ4USlQcyrQjQR-twqyse22Vw,25.032840399999998,121.55269050000001
信義區,婚紗,Lace & Dolly Atelier | 台北訂製婚紗｜頂級婚紗晚宴禮服租借｜婚紗租借｜專業婚紗,106097台灣臺北市大安區瑞安街23巷18號,4.6,651.0,ChIJVYQLf0WpQjQRspGjvCBliSs,25.030962,121.54482320000001
信義區,婚紗,歐洲進口花-小殼手作 大安花店|台北婚禮佈置|喜帖設計,11051台灣臺北市信義區信義路四段415號,4.6,114.0,ChIJu9Yf91upQjQR-T3K0TakPLk,25.0333656,121.55894690000001
信義區,婚紗,藤薰定制（台灣）,11051台灣臺北市信義區信義路四段391號10樓之一,4.5,15.0,ChIJPWfbs_WrQjQRd6_n-ebOde4,25.0332805,121.5584025
信義區,婚紗,PUREFOTO 海外婚紗/海外婚禮/自助婚紗/婚禮攝影/全家福寫真/寵物寫真/孕婦寫真,106台灣臺北市大安區信義路四段170號7f-1,4.8,27.0,ChIJJfXAFLGuQjQRGWJSwSIrIDM,25.033062899999997,121.5508698
信義區,婚紗,Hsu&She Makeup Studio 雙人徐造型,110台灣臺北市信義區忠孝東路五段47號,5.0,191.0,ChIJ0TnW5pWpQjQRumFZ5IZ51bk,25.041432,121.566334
信義區,婚紗,VERA WANG 婚紗台灣,106台灣臺北市大安區敦化南路1段302號1、2樓,4.2,5.0,ChIJyW9K-2-rQjQRhjOIuo-Ji7A,25.0358536,121.5483153
信義區,婚紗,凱勒・周 攝影紀實影像,110台灣臺北市信義區忠孝東路五段47號,5.0,34.0,ChIJW4zWlXarQjQRqaCzSFaWG6E,25.0414414,121.5662991
信義區,婚紗,Miss Diva Stylist,"B1, No. 6號忠孝東路五段165巷3弄信義區臺北市台灣 11071",5.0,20.0,ChIJf2b-kVyrQjQRO0i4SeitUrM,25.041464299999998,121.56897049999998
信義區,婚紗,MSENSE 高級媽媽禮服出租 / 台北媽媽禮服 出租 / 信義區媽媽禮服 / 晚禮服出租 / 旗袍古裝【預約制】,110台灣臺北市信義區永吉路30巷101弄50號1樓,4.9,165.0,ChIJ34V1cp2rQjQRW1vyKh_8_DY,25.0434065,121.5700663
信義區,婚紗,幸福角落婚禮工作室,11061台灣臺北市信義區松德路25巷31號,4.4,9.0,ChIJVWxDQUapQjQR2ht4abfrfS4,25.0380394,121.57766919999999
信義區,婚紗,Time Studio｜苧芙喜帖 · 祝福喜帖 - 婚禮用品 / 結婚書約（預約制）,110台灣臺北市信義區吳興街394巷19號,5.0,284.0,ChIJ57SeyJGrQjQRVsHHyEil9jM,25.024417999999997,121.566459
信義區,婚紗,幸福派.派派Makeup studio,110台灣臺北市信義區忠孝東路五段47號,5.0,62.0,ChIJBzQLtVodaDQRuU_pZRR2an4,25.041432,121.566334
信義區,婚紗,魔鏡造型Carrie新娘秘書,110台灣臺北市信義區虎林街132巷13號,5.0,5.0,ChIJ1ykC5aOrQjQRNuTLs1E2yaA,25.040236900000004,121.57640099999999
信義區,婚紗,凱瑟琳婚紗攝影,104台灣臺北市中山區中山北路二段93-1號,4.8,956.0,ChIJu7gO-kKpQjQRZ38wG6pONqM,25.0594368,121.52313470000001
信義區,婚紗,C+ Wedding 自助婚紗工作室- Cplus Wedding,110台灣臺北市信義區市民大道六段250號,4.3,4.0,ChIJ3eImr56rQjQRYfcq8ahFbNA,25.048797399999998,121.57738599999999
信義區,婚紗,attoui結婚旗艦廣場,110台灣臺北市信義區忠孝東路五段297號,4.5,2.0,ChIJDZYlbKOrQjQR4xCETGyzLhI,25.0412245,121.57316200000001
信義區,婚紗,艾葳精品婚紗,10092台灣臺北市中正區愛國東路42號,4.9,592.0,ChIJcyEs856pQjQRKgWVipWXeG8,25.034025,121.518417
信義區,婚紗,SEOUL MATE 首爾妹 信義威秀門市,110台灣臺北市信義區松壽路18號,4.9,1358.0,ChIJsRu-_dCrQjQRSm-j-TR6hdY,25.035117,121.56679790000001
信義區,婚紗,邊境 Oblivion,110台灣臺北市信義區松山路620號1樓,4.9,38.0,ChIJPclHtl-rQjQR6-f7LHeeVvI,25.0355638,121.57882020000001
信義區,婚紗,I-PRIMO (新光三越A8),11073台灣臺北市信義區松高路12號2樓,4.9,868.0,ChIJj9UJtrurQjQRHsqoiw36s6w,25.0382544,121.566802
信義區,婚紗,蜜月婚禮記錄專業錄影婚攝婚禮錄影,11087台灣臺北市信義區松山路465巷14弄7號1樓,4.0,1.0,ChIJeR-8MaGrQjQR8TTJLfh23Ho,25.039133000000003,121.578712
信義區,婚紗,笛兒瑪麗新娘飾品交流網,11071台灣臺北市信義區逸仙路50巷6號4 樓,4.0,5.0,ChIJYUt8x9urQjQR_rQWAOvHRFs,25.0404813,121.56216589999998
信義區,婚紗,AMBER WEDDING婚紗攝影工作室,111062台灣臺北市士林區重慶北路四段49巷40弄10號3樓,5.0,97.0,ChIJ3ccNDKYDaDQRSz0IuGdLbNk,25.080789300000003,121.51161590000001
信義區,婚紗,發現好室HAUS HAUS 自主攝影工作室,10491台灣臺北市中山區民生東路二段40號,4.7,530.0,ChIJi7AoqV2pQjQR6G0yKIm0U0M,25.057865099999997,121.529068
信義區,婚紗,W.Bridal 手工高訂禮服,100台灣臺北市中正區忠孝西路一段78號1 樓,4.8,53.0,ChIJ9928BR-pQjQR6pCJ3jg0W5Y,25.0469095,121.5138501
信義區,婚紗,愛情符號婚紗工作室,103台灣臺北市大同區重慶北路二段51號3樓,4.4,37.0,ChIJeyUNHEmpQjQRnySyclC5GjE,25.0553655,121.51434189999999
信義區,婚紗,雅歌婚禮顧問有限公司,110台灣臺北市信義區松仁路242號,2.5,2.0,ChIJo16hME2qQjQRKVyDHiMJFJ0,25.024537,121.569395
信義區,婚紗,奧莉薇二手婚紗禮服專賣店,10491台灣臺北市中山區中山北路二段137巷8號B1樓,4.6,365.0,ChIJM0VpTnypQjQRvCup84_sSyM,25.0616731,121.52379570000001
信義區,婚紗,Charis 美學工作室,110台灣臺北市信義區忠孝東路五段45號五樓,5.0,72.0,ChIJy3KrR7SrQjQR01_xg4u-d_o,25.0413279,121.5663673
信義區,婚紗,蘇菲雅婚紗社,220台灣新北市板橋區館前東路84號,4.9,2534.0,ChIJg7fJRKcCaDQR0VtWHy00NYI,25.0073838,121.46199360000001
信義區,婚紗,ONLY YOU陽光攝影棚,103台灣臺北市大同區重慶北路三段255號,4.9,245.0,ChIJfacZ3zepQjQRloEZ43_avRc,25.071582900000003,121.51403809999998
信義區,婚紗,創麗影音多媒體股份有限公司,110台灣臺北市信義區基隆路二段189號,5.0,1.0,ChIJlXgO7TOqQjQRhH7eiiD3oqk,25.0248048,121.5533315
信義區,婚紗,婚攝加冰影像工作室,110台灣臺北市信義區和平東路三段341巷,,,ChIJkZj3uUKrQjQRaegEupP9exI,25.0211856,121.55719110000001
信義區,婚紗,汶行時尚婚紗,106台灣臺北市大安區信義路三段31巷17號,,,ChIJJ_NKrX-pQjQRlb1rbeRae-c,25.0359736,121.5347759
信義區,婚紗,想想空間idea Space 二號店-白色的房子,110台灣臺北市信義區松德路36號11樓,4.3,15.0,ChIJFfYqyRqrQjQRNwla__BBhv8,25.039099,121.57679890000001
信義區,美容護膚,SATINE BEAUTY,110台灣臺北市信義區莊敬路289巷5弄21號1樓,5.0,232.0,ChIJLW-2U7SrQjQRXBHibAFUv2k,25.0298232,121.56294829999999
信義區,美容護膚,樂芙美SPA信義店,110台灣臺北市信義區忠孝東路五段480號,5.0,151.0,ChIJtYhfL6urQjQRBQ6WJxanMwM,25.040586,121.57761699999999
信義區,美容護膚,東森REGAL CLUB & SPA 台北101旗艦店(原NB東森自然美),110台灣臺北市信義區信義路四段413號12F,4.9,716.0,ChIJ7b1P4LWrQjQRqMPjdyT8Mfg,25.0332978,121.5589862
信義區,美容護膚,英莎蔓it’s me salon-美容諮詢|肌膚保養|粉刺痘痘調理|婚前皮膚保養|台北信義區|永春捷運站,110台灣臺北市信義區忠孝東路五段482號14樓之1,5.0,244.0,ChIJKZ79AEepQjQRTQXbG41SG_M,25.040611,121.57804199999998
信義區,美容護膚,你好嗎美學SPA信義店,110台灣臺北市信義區忠孝東路四段559巷14號4樓,4.9,104.0,ChIJMWG3SumrQjQRIN_4piw_EYo,25.042113,121.56377630000001
信義區,美容護膚,東森自然美信義莊敬店,110台灣臺北市信義區莊敬路214號2樓,5.0,72.0,ChIJPyYoyUCrQjQRxGHOq2IJZ6k,25.0301302,121.56161739999999
信義區,美容護膚,WiseBeauty維愛思時尚美學館-台北(做臉|美容|背部粉|spa推薦) 信義區(做臉|清粉刺|spa|美容|敏感肌),110台灣臺北市信義區基隆路一段141號4F-11,4.8,403.0,ChIJh7eui6SrQjQRz52Z9FSm65Q,25.0428312,121.56577970000001
信義區,美容護膚,群悅美妍健體養護館 牡丹店/按摩/SPA/養生館/美容/信義養生館/信義按摩,110台灣臺北市信義區忠孝東路五段386號2樓,5.0,102.0,ChIJ26x8naOrQjQRs8ZiPDAkQdI,25.0407507,121.57410170000001
信義區,美容護膚,MENARD FACIAL SALON - 台北麗境店 信義區做臉|信義區清粉刺|護膚|美容|Spa|按摩|油壓,110台灣臺北市信義區大道路105號,5.0,25.0,ChIJAXFLd9OrQjQRiPkHrAgC6ew,25.0399656,121.5829706
信義區,美容護膚,EMBELLISH face care 依比麗,110台灣臺北市信義區虎林街120巷155號1樓,4.9,106.0,ChIJo5P-eiWrQjQRubN6UN_0tY8,25.0421929,121.57448399999998
信義區,美容護膚,慧妮克斯美學館,"3樓, No. 20號松德路信義區臺北市台灣 11076",5.0,137.0,ChIJWyeHVk2rQjQRB0HcMwZz7pQ,25.039347700000004,121.57717039999999
信義區,美容護膚,瀞spa（只服務女性顧客）,110台灣臺北市信義區忠孝東路五段43號4樓,4.8,37.0,ChIJG9qiyGmrQjQRXVDZtHMHmzQ,25.0415159,121.56622700000001
信義區,美容護膚,MENARD FACIAL SALON松仁店 信義區做臉|信義區清粉刺|信義區護膚|美容|Spa|按摩|做臉推薦,110台灣臺北市信義區松仁路250號,5.0,39.0,ChIJAfdEOk2qQjQRfUpWrw_cKJ8,25.024473399999998,121.56931249999998
信義區,美容護膚,Ls肌膚管理室,110台灣臺北市信義區忠孝東路五段1號7樓,5.0,27.0,ChIJiTeRNsqrQjQRTrkyvGbo_sE,25.041320900000002,121.5648909
信義區,美容護膚,別丟臉美膚|台北信義店,110台灣臺北市信義區松山路586號,4.9,492.0,ChIJ7ZnCxxmrQjQRGRLIaWDkJQs,25.0368188,121.5782467
信義區,美容護膚,梵莎爾SPA（信義館）,110015台灣臺北市信義區莊敬路325巷11號,4.9,206.0,ChIJU5OQ7bSrQjQRRbwTSDxyNhg,25.028411000000002,121.563887
信義區,美容護膚,丸美肌膚 台北市府信義店｜台北韓國皮膚管理專門｜台北水飛梭｜台北清粉刺｜台北藻針｜台北液態皮秒｜台北私密處除毛｜台北牙齒淨白｜台北MTS｜台北男生做臉｜台北美容,110台灣臺北市信義區基隆路一段141號12樓之9,5.0,79.0,ChIJ_QHNQUOrQjQR7_XYELouZTc,25.043042999999997,121.5659032
信義區,美容護膚,青春奇蹟信義店 | 台北清粉刺 | 台北做臉 ｜男女皆適,110台灣臺北市信義區忠孝東路五段71巷12弄13號,5.0,410.0,ChIJuQQAXi6rQjQRK4ou5HK2K9U,25.0420802,121.56653369999998
信義區,美容護膚,Sparadise | RF Face-Lifting · Hydrafacial · Massage Spa,110台灣臺北市信義區吳興街118巷26弄15-1號,4.6,206.0,ChIJk8GurpKrQjQRHh9wfCzMjjQ,25.029860600000003,121.5599418
信義區,美容護膚,包你水美妍護膚spa,110台灣臺北市信義區松德路12號8樓,5.0,40.0,ChIJ6fRuu3CrQjQRkdieG6wOdlY,25.039649999999998,121.5774546
信義區,美容護膚,Spa L’OCCITANE歐舒丹美妍美體中心-台北統一時代百貨,110台灣臺北市信義區忠孝東路五段8號1樓,4.9,212.0,ChIJqRQ6rKqpQjQREyGO-t2F3aA,25.041445,121.565292
信義區,美容護膚,艾蕊形象管理中心-信義店；永春 按摩 SPA 做臉,110台灣臺北市信義區虎林街222巷30號4樓,5.0,53.0,ChIJkwkJ5QarQjQRu-61Opc9Zqo,25.036825,121.57628749999998
信義區,美容護膚,Camado信義區做臉/霧眉/無創除色/工作室(預約可加line:@camado)手工清粉刺/全程手技/大安區做臉/大安區清粉刺,110台灣臺北市信義區光復南路505號10F-7,5.0,67.0,ChIJO2h7LyerQjQRWWBOpIGznkg,25.0320651,121.5576353
信義區,美容護膚,舒室susi,110台灣台北市信义区忠孝東路五段47號2樓,5.0,102.0,ChIJT9wAF_KrQjQRZED6PLq-4VQ,25.041432,121.566334
信義區,美容護膚,Sunshine Studio-信義美容保養|手工清粉刺|客製肌膚規劃|睫毛管理|臉部撥筋|耳燭|美容教學|台北信義區|捷運麟光站｜六張犁,110台灣臺北市信義區富陽街91號3F-1,5.0,25.0,ChIJOdFgNAqrQjQRfh59WOjtsaQ,25.0212368,121.5568436
信義區,美容護膚,凱菲思肌膚管理Beauty Studio,110台灣臺北市信義區信義路五段150巷22弄10號2樓,5.0,2.0,ChIJdQxgfuirQjQRddNPWRk8Z0U,25.027374299999998,121.56977200000001
信義區,美容護膚,Shan美學-臉部保養/精油按摩/作臉護膚/做臉護膚,11070台灣臺北市信義區基隆路一段186號11樓之一,5.0,34.0,ChIJyePEEWirQjQRn9LVuIs0M2E,25.042080000000002,121.5647486
信義區,美容護膚,"Frank Beauty肌膚美學-信義區(做臉,美容,清粉刺,美妝,修眉毛,皮膚保養,美容推薦) skincare&beauty",110台灣台北市信义区基隆路一段127號4樓之2,5.0,353.0,ChIJ19tzJNyrQjQRPVkEAojA8ds,25.044506000000002,121.566848
信義區,美容護膚,奇跡美學造型KISEKI Beauty Makeup - 台北韓系皮膚管理 | 美甲美睫 | 紋綉 | 彩妝 | 個人色彩分析 | 形象管理 | 五官顏值分析 | 日本JMA顏分析化妝證照課 |日本16類個人色彩分析）,"基隆路一段155號8樓之6 8樓之6, 樓之6, 「萬世大樓No. 155號8基隆路一段信義區臺北市台灣 110",5.0,177.0,ChIJLezQuqOrQjQRuIeyh7FHtxU,25.042170199999997,121.56541360000001
信義區,美容護膚,星和愛漂亮 信義基隆路店 - 手工粉刺速淨丨聲波保濕導入丨鑽白光感多肽酸丨膠原瑩潤精華導入丨煥顏肌活離子導入丨客製修眉,110台灣臺北市信義區基隆路二段50號,4.9,392.0,ChIJE8oRWV2rQjQR84SCZqCyb6Q,25.0315059,121.55839390000001
信義區,美容護膚,LoftSoft專業肌膚管理,106台灣臺北市大安區信義路四段151號2F-2,4.8,285.0,ChIJWZ7YKMarQjQRFQNPDHH28Bk,25.0334535,121.5498508
信義區,美容護膚,雯宣美學SPA肌膚管理中心,110台灣台北市信义区忠孝东路五段524巷3弄1號2樓,4.9,30.0,ChIJG26yO4arQjQR7KYoZCgkW2o,25.040885,121.57976459999999
信義區,美容護膚,預約制。真善美‧美容坊Harmony Skin Care |面皰肌膚調理|臉部保養|痘痘|粉刺|台北信義區六張犁做臉,110台灣臺北市信義區嘉興街216巷14號1樓,4.9,31.0,ChIJB8_Q03irQjQRnHdz6IJ8YLA,25.027272999999997,121.55645700000001
信義區,美容護膚,喵苗淼洗臉吧,110013台灣臺北市信義區信義路五段8巷7號1樓,5.0,307.0,ChIJu3Z5KACrQjQRJxooRR9CPzs,25.0321879,121.56064980000001
信義區,美容護膚,詩威特國際美容台北世貿店,110台灣信義區吳興街99巷1-1號,4.9,293.0,ChIJVw98l7WrQjQRFXZiG1Ui298,25.030398599999998,121.56101969999999
信義區,美容護膚,LUSH嵐舒 台北信義店,110台灣臺北市信義區松壽路18號,5.0,1597.0,ChIJIzvx76OrQjQRsQTVs8peTm4,25.0350555,121.5667876
信義區,美容護膚,伊紅美容坊,"8樓, No. 17號忠孝東路五段信義區臺北市台灣 11082",5.0,28.0,ChIJ0fsIMnOrQjQR4iRKZYI7nbc,25.041356,121.56557099999999
信義區,美容護膚,TeethLin Beauté Bar | 信義區六張犁 | 空氣水光透皮術 | 水氣泡 | 矽晶煥顏 | 健康管理 | 韓國醫美 | 原齒亮白,110台灣臺北市信義區和平東路三段225號,5.0,113.0,ChIJ88zPsuyrQjQRBAt-oqe61vc,25.0232966,121.5539276
信義區,美容護膚,VASI琺息蘊美空間_信義永春店,110台灣臺北市信義區忠孝東路五段492巷5號,5.0,258.0,ChIJuYo01fWrQjQRt6A3RTT4APc,25.040144899999998,121.57850599999999
信義區,美容護膚,虹希專業美容沙龍,110台灣臺北市信義區莊敬路341巷4弄26號,5.0,11.0,ChIJOXkVG06qQjQRXYQEN3ZK_H8,25.027953999999998,121.56506590000001
信義區,美容護膚,施舒雅美容世界 BELLAVITA信義店,110台灣臺北市信義區松仁路28號號3F,4.0,33.0,ChIJ00IXeLGrQjQRdzj9tbVKSdo,25.0397286,121.5678265
信義區,美容護膚,潔西卡美容美體SPA紋繡沙龍 (Jessica Beauty Salon),11071台灣臺北市信義區忠孝東路五段149號2樓,5.0,17.0,ChIJ_4Qd9iarQjQRnPotTJ0hS34,25.04123,121.5682167
信義區,美容護膚,愛仕美 AS Blanc 微風信義店,"3樓, No. 68號忠孝東路五段信義區臺北市台灣 110",5.0,55.0,ChIJ_VAerpCrQjQR6w5_lDe5zNo,25.040502,121.56706729999999
信義區,美容護膚,一朵 • studio｜專業采耳/掏耳/耳燭/護膚/撥筋/保養/舒壓/教學,110台灣臺北市信義區松山路449號,5.0,92.0,ChIJbcDzfqKrQjQRpoys7iYgHrE,25.0399812,121.57803740000001
信義區,美容護膚,Swee Vital 光療苑|信義區高端科技美體中心|AI紅光SPA|懶人塑身減重口碑推薦,110台灣臺北市信義區忠孝東路五段492巷7號,4.9,123.0,ChIJldpiqParQjQR-hfATVRRgNI,25.0400939,121.57850599999999
信義區,美容護膚,愛墨薾美學,110台灣臺北市信義區永吉路180巷48弄16號,5.0,30.0,ChIJU22kZo6rQjQRcIDJ1RL4BP4,25.0440865,121.57102220000002
信義區,美容護膚,葛芮絲Grace Spa,110台灣臺北市信義區永吉路189-3號 號2F,5.0,8.0,ChIJn_enlw8BaDQRZD2JtGkiXU4,25.04578,121.57292799999999
信義區,美容護膚,質菲雅松山永吉店,110台灣臺北市信義區永吉路337號,5.0,101.0,ChIJMWEgmRqrQjQRWClQboaJKms,25.045651,121.57603999999999
信義區,美容護膚,采憶時尚美容館,110台灣臺北市信義區虎林街202巷46號1樓,4.7,17.0,ChIJo699o0SrQjQR1xr78DMAh1s,25.037720399999998,121.575999
信義區,美容護膚,沐竹岩盤浴-台北市府會館,110台灣臺北市信義區忠孝東路五段71巷3弄20號 1樓,4.8,1054.0,ChIJ0_f7V7mrQjQRLCjYWbuwUlo,25.041525999999998,121.56807399999998
信義區,美容護膚,淨膚寶 Skin Bar 信義大巨蛋店,110台灣臺北市信義區光復南路447之40號1樓,5.0,208.0,ChIJ91WbEwerQjQR-b82dM0Fil0,25.0352532,121.5583047
信義區,美容護膚,起初SPA,110台灣台北市信义区忠孝東路五段459號2樓-5,5.0,17.0,ChIJl2axhNyrQjQR9p7bITYidKg,25.041154,121.5765114
信義區,美容護膚,Remmy ·_· Beauty 專業熱蠟除毛,110台灣臺北市信義區虎林街141巷15弄6號1樓,5.0,15.0,ChIJVTVlX9mrQjQRizasF-coRnc,25.0398319,121.57733189999998
信義區,美容護膚,艾麗時尚美容SPA,110台灣臺北市信義區莊敬路426號,4.7,59.0,ChIJ35PWsI-rQjQR8KiOGNRSVX8,25.027023300000003,121.56665480000001
信義區,瑜珈,JA Yoga Studio 轉角瑜伽,110台灣臺北市信義區信義路五段150巷401弄20號,4.4,13.0,ChIJJzurTE2qQjQRs5a-n1JBJoM,25.024989,121.570194
信義區,瑜珈,光點瑜伽&兒童瑜伽動物園 Lightyoga/Yogazoo,110台灣臺北市信義區忠孝東路五段370號2樓,5.0,76.0,ChIJfSP_s5GrQjQRxVxoPIibeqw,25.040726,121.573902
信義區,瑜珈,MY Yoga x Pilates,110台灣臺北市信義區基隆路二段19號5 樓 之 1,5.0,7.0,ChIJF6SmTgCrQjQR2pQxUsIeVhE,25.031999,121.55913170000001
信義區,瑜珈,大自然瑜珈教室,110台灣臺北市信義區基隆路二段99-1號號 5F,5.0,7.0,ChIJhfAzncqrQjQRQW2DTjEc5pM,25.0296338,121.5577665
信義區,瑜珈,PINYOGA品瑜伽信義教室,110台灣臺北市信義區信義路五段8巷21號3樓,5.0,6.0,ChIJpZk3Wr2rQjQReGYOapStsxA,25.0324217,121.5606973
信義區,瑜珈,信義館 | Tryoga Studio | 出外·瑜珈工作室《採全預約制》｜信義瑜珈｜初學者瑜珈｜小班制教學,110台灣臺北市信義區基隆路一段432號3樓之5,5.0,157.0,ChIJ19YvU7KpQjQRURiye4FWJPE,25.033753599999997,121.55957959999999
信義區,瑜珈,TINA&SHERRY大家善用瑜珈,110台灣臺北市信義區和平東路三段401號1樓,4.9,14.0,ChIJ5zUW-GirQjQR_RcNSpt6g7E,25.019646299999998,121.55785660000001
信義區,瑜珈,easyoga台北生活概念館,110台灣臺北市信義區逸仙路48號,4.4,176.0,ChIJ_QYiGnupQjQR04iTwXBeP6A,25.0405442,121.5616868
信義區,瑜珈,Switch ON 妳的運動空間,110台灣臺北市信義區忠孝東路五段625號,4.9,306.0,ChIJL8YHfpyrQjQRYrTZOuRgD6I,25.041791,121.579242
信義區,瑜珈,THE KEY YOGA 松仁館,"B1, No. 89 號松仁路信義區臺北市台灣 110",4.3,11.0,ChIJIzn-cLGrQjQRXMeXzZys1L8,25.0371392,121.5692004
信義區,瑜珈,Pd pilates by paradise | 信義店.器械皮拉提斯,110台灣臺北市信義區基隆路一段163號6樓之一,4.8,271.0,ChIJs3QbBhmrQjQRuVxfYibHt5w,25.0418679,121.5651516
信義區,瑜珈,做瑜珈 zuoyoga,106台灣臺北市大安區信義路四段189號8F-1,4.2,34.0,ChIJ-ahe1yyqQjQRONiRqMhU-As,25.0334763,121.55105440000001
信義區,瑜珈,大雄瑜珈,110台灣臺北市信義區基隆路一段147巷39號,5.0,6.0,ChIJV-5IrqSrQjQRvZqutkZnDTw,25.042488,121.567498
信義區,瑜珈,Mahabhuta 瑜伽療癒空間,110台灣臺北市信義區忠孝東路五段703巷1弄38號,5.0,36.0,ChIJadH_kBerQjQRlqDmIWJPyRY,25.042591599999998,121.57883670000001
信義區,瑜珈,KX Pilates 微風南山店│台北信義區皮拉提斯教學推薦│台北機械器械皮拉提斯│台北室內運動瑜伽教室,110台灣臺北市信義區松智路17號4樓,5.0,835.0,ChIJbXauz7qrQjQRFjgcj0Dkw68,25.0343062,121.56646409999998
信義區,瑜珈,衡享動作訓練空間（預約制）,110台灣臺北市信義區光復南路563號3樓,5.0,131.0,ChIJQ4I0PGGrQjQRxuakhIkS_Bw,25.030934799999997,121.55759099999999
信義區,瑜珈,PIKE SIX Pilates | Fitness | 器械皮拉提斯 健身房 | 體適能 | 瑜珈 | 團課及私教課,110台灣臺北市信義區忠孝東路四段514號1樓,5.0,174.0,ChIJUQPTxRWrQjQR1_S7QeKMfI0,25.0408285,121.56248009999997
信義區,瑜珈,Hangout 瀚奧空中。瑜珈,"1 No. 42號, 四維路170巷大安區臺北市台灣 106",4.9,64.0,ChIJmwmhuM6rQjQRqJFYKcMafAY,25.028209699999998,121.5461404
信義區,瑜珈,The Y Opera 仙子劇場（空中瑜珈）,110台灣臺北市信義區忠孝東路五段371號,5.0,23.0,ChIJoY9hOYarQjQRcQmmensA-yA,25.0410659,121.5748884
信義區,瑜珈,臺北市信義運動中心Taipei Xinyi Sports Center,110台灣臺北市信義區松勤街100號,4.1,2723.0,ChIJNwHKWrGrQjQRVtuXp-yNh2I,25.031698499999997,121.56676799999998
信義區,瑜珈,V Studio 貓館 NO.3,110台灣臺北市信義區基隆路一段143-1號7樓,5.0,9.0,ChIJraPrFQCrQjQRInp64x8zQ_A,25.0428946,121.56575819999999
信義區,瑜珈,友馨瑜珈 UnisonYoga,106台灣臺北市大安區和平東路三段76號2樓,4.7,54.0,ChIJxbk5KDKqQjQRiw1rC5Bo3c8,25.0243035,121.55070850000001
信義區,瑜珈,心瑜珈 Mind Yoga Therapy,106台灣臺北市大安區信義路四段6號大安站旁華南銀行玻璃門內電梯上樓16樓之9,4.8,11.0,ChIJaZU9URSrQjQRB6OfWPmxG8s,25.033267,121.5439986
信義區,瑜珈,雲朵空間 Cloud space,110台灣臺北市信義區莊敬路190-4號,5.0,2.0,ChIJgZULux2rQjQRdfJTYj1jOmU,25.0307553,121.5611362
信義區,瑜珈,阿孟身心空間-瑜伽、費登奎斯教室,110台灣臺北市信義區嘉興街181巷2-3號,5.0,8.0,ChIJ1c1LdqyrQjQR3audNQ5FAlA,25.0259558,121.55673960000001
信義區,瑜珈,Motivaction恆動逸仙店｜皮拉提斯｜DNS訓練｜側彎訓練,110台灣臺北市信義區仁愛路四段518號,5.0,78.0,ChIJwdkuUdWrQjQRuf_t1gujkAE,25.037197499999998,121.5615484
信義區,瑜珈,RG Studio 越練越好體能學院,110台灣臺北市信義區基隆路二段51號B1,4.9,95.0,ChIJzZyOjkurQjQRt_76ScKddmM,25.030920899999998,121.55849169999999
信義區,瑜珈,天空療癒室 瑜伽教室,106台灣臺北市大安區信義路四段380號2樓,,,ChIJ4eHCSOKrQjQRAyywwrmgWic,25.032916200000003,121.5559071
信義區,瑜珈,YOUC｜又希心靈療癒中心·瑜珈·全域占星教學·諮詢·頌缽·水晶缽·租借場地【預約制】,110台灣臺北市信義區永吉路225巷13-1號,5.0,21.0,ChIJhx41OCCrQjQRTz6B6eY_QT8,25.046891799999997,121.5745072
信義區,瑜珈,健身銀行Fitness Bank（有重訓及器械皮拉提斯團課）,110台灣臺北市信義區忠孝東路五段423巷4弄16號1樓,5.0,219.0,ChIJr0zMtCCrQjQRfEQkug3TCho,25.0413216,121.57621719999999
信義區,瑜珈,永春活力館,110台灣臺北市信義區松山路342巷13號1樓,4.3,84.0,ChIJGcdtDMirQjQRQhLXmxDBnGo,25.0413565,121.57711969999998
信義區,瑜珈,S Pilates 彼拉提斯工作室,110410台灣臺北市信義區忠孝東路五段1號11樓,4.3,11.0,ChIJBaVKqEGrQjQRtOASnKgHpEw,25.041385299999998,121.5652569
信義區,瑜珈,自在瑜珈,"3樓, No. 18號松德路信義區臺北市台灣 110",4.0,6.0,ChIJgY7zVKGrQjQRe9U45RTD1s0,25.039392900000003,121.57721289999999
信義區,瑜珈,Anytime Fitness 信義 A25 - 24小時健身房,110台灣臺北市信義區松高路77號地下2樓,4.8,482.0,ChIJbSUOXACrQjQRqa71jPEwDvM,25.0393829,121.57040210000001
信義區,瑜珈,GYMEFIT Ninja,110台灣臺北市信義區基隆路一段25號,4.9,158.0,ChIJE6Z4Z6CrQjQRjd7H-r4NnRk,25.048408,121.56912299999999
信義區,瑜珈,ReHerSoul Studio 安和館｜空中環｜舞綢｜空中瑜珈｜伸展拉筋｜流動瑜珈｜核心雕塑｜空間租借,10678台灣臺北市大安區安和路二段7號1樓,5.0,84.0,ChIJCQHEEACrQjQRlztzNKbTc1U,25.0328013,121.5526309
信義區,瑜珈,woomanpower女力空間 - 台北會議空間 | 台北共享空間出租 |台北座談/讀書會場地出租 | 台北空間出租| 台北商務會議 | 台北活動空間| 活動場租| 場地出租,110台灣臺北市信義區基隆路一段153-1號1樓,4.9,130.0,ChIJFZn3KR2rQjQRgYXHHZXykck,25.042329,121.56554399999999
信義區,SPA,香柏木SPA莊園 - 世貿館,110台灣臺北市信義區信義路四段450巷9號2樓,4.7,246.0,ChIJUbw6_rqrQjQR4upCk2QASzk,25.032286,121.558612
信義區,SPA,青和泰信義會館 Chin Herr Thai Massage,110台灣臺北市信義區信義路五段126號B1,4.5,701.0,ChIJBw_4AC2rQjQR90WWTtz2ZLk,25.0325663,121.5685991
信義區,SPA,Ayoung Miya Spa 海森健康美學（信義館）,110台灣臺北市信義區忠孝東路五段510號15樓,4.9,514.0,ChIJifx2FnCrQjQRBXkzgpC1P58,25.041154,121.578971
信義區,SPA,森沐頭療SPA 加Line預約＠sunspa 越式洗髮｜按摩SPA ｜英式皇家頂輪紓壓｜保養美容,110台灣臺北市信義區光復南路417巷213號,4.9,315.0,ChIJlcfzG5OrQjQRC8iN23cBiSo,25.036884999999998,121.56018180000001
信義區,SPA,SAKURA SPA,110台灣臺北市信義區松仁路91號B1,4.3,295.0,ChIJC0agNdCrQjQRzhny67R49Js,25.036797,121.56865499999999
信義區,SPA,心知足spa養生館 Taipei Body & Foot Massage|按摩|腳底按摩|刮痧拔罐|運動整復|經絡按摩|油壓|SPA|肩頸按摩|マッサージ,"1F, No, No. 149基隆路一段信義區臺北市台灣 110",4.7,571.0,ChIJ_ft4AryrQjQR5as4oUn8rb4,25.0424588,121.56572380000001
信義區,SPA,The Sparkle Spa,110台灣台北市信义区信义路四段458號17樓,4.6,115.0,ChIJCxzR_NGrQjQRoJ_3mwa5N7g,25.0327691,121.5583758
信義區,SPA,沐軒spa芳療紓壓,110台灣臺北市信義區吳興街284巷3-7號1樓,4.8,66.0,ChIJrYXH_2qrQjQRh40JGSIjhZs,25.0256059,121.56405600000001
信義區,SPA,不老松足湯台北信義行館,106台灣臺北市大安區信義路三段153號1樓,4.8,10206.0,ChIJV2UZU4KrQjQRviqFeWckqJk,25.033590399999998,121.54248940000001
信義區,SPA,松足體養生會館/pinefootspa/발마사지 바디 마사지,110台灣臺北市信義區基隆路二段94號,4.4,1017.0,ChIJv0Ba98qrQjQR3rr9bz5PbKg,25.030306799999998,121.55775790000001
信義區,SPA,菡氧Spa/Massage,10684台灣臺北市大安區大安路一段157巷5號1樓,4.9,732.0,ChIJZZELVn6rQjQRevMTzsNzl0s,25.0372871,121.54645049999999
信義區,SPA,泰心泰式生活館,110台灣臺北市信義區永吉路413號,4.4,812.0,ChIJjaLDS5-rQjQRFGX9pJ-udQ0,25.0456213,121.5772882
信義區,SPA,6星集市府會館,110台灣臺北市信義區忠孝東路五段17-3號,4.4,281.0,ChIJxyDUr-GrQjQRgLQqy1hZs-0,25.041356,121.56557099999999
信義區,SPA,沐錦堂足體養身會館,110台灣臺北市信義區松山路290號,4.8,972.0,ChIJR_hYpJ-rQjQRqNjlZRAxpEA,25.0434472,121.5776245
信義區,SPA,湯美岩-台北逸仙會館｜岩盤浴｜熱石按摩｜SPA｜體雕｜懶人瘦身,110台灣臺北市信義區逸仙路42巷5-1號號1F,5.0,708.0,ChIJ65NfQrurQjQRAfO3Gn1E7pY,25.040294799999998,121.5622741
信義區,SPA,24H-ALICE飯店按摩/到府按摩/Massage/全身按摩/精油SPA/腳底按摩/修腳皮/修雞眼/修凍甲/修灰指甲/刮痧/拔罐,"7樓, No. 488號忠孝東路五段信義區臺北市台灣 110",5.0,2.0,ChIJAV14Oi2rQjQRfORQO5b7Te0,25.040718,121.5781007
信義區,SPA,花廂鳥語Haven of Ease Garden | 精油油壓| 現代融合古法泰式 | 瑞典式按摩X全身去角質 | 海底輪芳療 | 脈輪按摩 | 頭部舒壓 | 腹部芳療 | 寵物友善-預約制,110台灣臺北市信義區松隆路3號2樓,5.0,44.0,ChIJBYWuS3CrQjQRziufgHjdkmk,25.043540099999998,121.56649700000001
信義區,SPA,舒泰養生館 SUK THAI MASSAGE,110台灣臺北市信義區光復南路551號,4.4,230.0,ChIJsQJMIYGrQjQR_MOnLfcusaM,25.0315048,121.55767050000001
信義區,SPA,舒馥 身體養護-預約制 (Reservation required) (Shu Fu massage studio),110057台灣台北市信义区永吉路30巷119弄27號1樓,5.0,1171.0,ChIJ1WoJKVCuQjQRUpWNiMlFzeY,25.0431766,121.5700545
信義區,SPA,In touch人文spa新境,110台灣臺北市信義區忠孝東路五段165巷3弄20號,4.4,59.0,ChIJUTQjnLyrQjQR8aQ2DRIxvek,25.041487699999998,121.5694775
信義區,SPA,101足體健康養生館,110台灣臺北市信義區松山路409號,4.1,336.0,ChIJjbD9c6GrQjQRHi5TAH8McJk,25.0413718,121.57801160000001
信義區,SPA,AWAY SPA 紓壓艙,110台灣臺北市信義區忠孝東路五段10號,4.3,41.0,ChIJZY4-57urQjQRtc1NTPk_T08,25.040800599999997,121.56556649999999
信義區,SPA,寬心園健康養身會館,110台灣臺北市信義區松山路395號,4.4,214.0,ChIJ6cb_daGrQjQROQ_XjDDenYU,25.041700199999998,121.578032
信義區,SPA,雲九SPA會館,110台灣臺北市信義區忠孝東路五段460號2樓,5.0,4.0,ChIJXWVhwKOrQjQRsGDrB-Ft04s,25.040658,121.57657900000001
信義區,SPA,芭達雅時尚養生會館,110台灣臺北市信義區松山路311號,3.9,90.0,ChIJWYs2l6GrQjQRPfxsO6yo8R4,25.042458999999997,121.57805499999999
信義區,SPA,泰亞泰式生活館,110台灣臺北市信義區松隆路183號1樓,4.5,209.0,ChIJDcawP5mrQjQRFVVaAO7xW8Q,25.048768,121.575645
信義區,SPA,La Pure Spa敦南信義,10687台灣台北市大安区仁爱路四段122巷46號1樓,4.8,153.0,ChIJnWYW3M2rQjQR7om7WWnlpNc,25.034704899999998,121.5500879
信義區,SPA,Espace Beauté 玩美會所 EB SPA艾麗店,110台灣臺北市信義區松高路18號,4.6,25.0,ChIJiy_eTLqrQjQR6g1blZeCN9k,25.0386529,121.5674448
信義區,SPA,隱之森SPA-隱舍-台北大安區按摩SPA推薦（捷運信義安和站),106台灣臺北市大安區仁愛路四段112巷41號,4.5,172.0,ChIJVTup4M2rQjQRKZCjP0C-_QI,25.034893999999998,121.5498344
信義區,SPA,樂樂汗蒸幕—負離子碧璽高能汗蒸舒壓館,110台灣臺北市信義區忠孝東路五段372巷29弄9號,5.0,944.0,ChIJeyO8pcOrQjQRfkgFD2wJo7Y,25.039071999999997,121.57430900000001
信義區,SPA,愈spa,110台灣臺北市信義區忠孝東路四段559巷16弄9號,4.7,14.0,ChIJoxyXyr6rQjQRAj122fS3AU0,25.042402199999998,121.5641263
信義區,SPA,足千里足體養生館,110台灣臺北市信義區忠孝東路五段509號,4.6,407.0,ChIJ3UpNp6GrQjQRzImNz9x3Ops,25.041586,121.57874100000001
信義區,SPA,艾樂源足體養身美容SPA會館,110台灣臺北市信義區忠孝東路五段19號11樓,3.8,32.0,ChIJ0_f7V7mrQjQRH8tDmPJ1mHM,25.041356699999998,121.5656569
信義區,SPA,淼淼 美胸按摩 乳腺疏通 孕婦按摩 骨盆暖宮 仕女spa,110台灣臺北市信義區基隆路一段141號11樓,5.0,685.0,ChIJRYE05lGrQjQRy1qe9lhlMDo,25.0430429,121.5659032
信義區,SPA,足功夫養身館,110台灣臺北市信義區松德路8號1樓,4.7,163.0,ChIJiwh5UaGrQjQRY9y1NXVFtqI,25.039572999999997,121.577524
信義區,SPA,iMassage｜台北按摩｜信義區按摩｜台北全身按摩｜台北頭部按摩｜台北運動按摩｜台北刮痧｜Massage｜SPA｜マッサージ｜台北肩頸放鬆（信義店/預約制）,110台灣臺北市信義區基隆路一段141號4F-9,4.9,216.0,ChIJy9Z7c7yrQjQR7BHmDWkQkWo,25.0429861,121.5659519
信義區,SPA,指舞小春秋足體養生館-信義新光A9店,110台灣臺北市信義區松壽路9號4樓,4.4,257.0,ChIJO8o3K8mrQjQRhbWhjjjhfi8,25.036670599999997,121.56670179999999
信義區,SPA,施舒雅美容世界 信義新天地A4店,110台灣臺北市信義區松高路19號4樓,4.3,47.0,ChIJCVBXxrurQjQRI1i-QQ4WST4,25.039732599999997,121.5664851
信義區,SPA,茉淂菲 MODIFY SPA 美容/筋絡按摩/艾灸調理/湯之花岩盤浴(限女賓)-信義推薦按摩|推薦岩盤浴|推薦舒壓按摩|推薦SPA|筋絡按摩|鬆筋按摩,110040台灣臺北市信義區忠孝東路五段800號8樓之6,5.0,129.0,ChIJp182DV2rQjQR8C67tHRd-Y4,25.043765099999998,121.58193949999999
信義區,SPA,森SPA足體養生會館 通化館,"之3, No. 26號通化街大安區臺北市台灣 106",4.1,1115.0,ChIJZQmPksqrQjQRIsTXSYGCM4c,25.031623399999997,121.55414110000001
信義區,SPA,好fun空間經絡按摩會館,11064台灣臺北市信義區忠孝東路五段71巷33號1樓,5.0,1290.0,ChIJ6fbzv3upQjQRfBGx1s3p9FU,25.0428684,121.5674588
大安區,美甲,Cloudia Nails 小雲時尚美甲/美睫/紋繡-創始店,106台灣臺北市大安區泰順街44巷29號2樓,4.9,607.0,ChIJvTT-K0GpQjQR4YUl2jdAOMo,25.023977,121.529646
大安區,美甲,Calbee Nail Story House 卡比指甲故事館,106台灣臺北市大安區信義路四段6號14F之16,5.0,429.0,ChIJYai1CdOrQjQRKVUwQshxW7M,25.0331659,121.54414460000001
大安區,美甲,愛馬星美甲美睫美學概念館,106台灣臺北市大安區忠孝東路三段303之1號1樓,4.8,934.0,ChIJ_RG_AuGrQjQRVLq-21FVJ1Y,25.0421329,121.54319509999998
大安區,美甲,Gnail & lash salon 美甲｜日式美睫沙龍(Line預約制),106台灣臺北市大安區復興南路二段35號10樓,4.7,171.0,ChIJ5eqXskurQjQRBASbtfKPjjc,25.0316601,121.5437828
大安區,美甲,Soleil nail studio 美甲工作室,106台灣臺北市大安區復興南路二段200號7號樓之2,5.0,155.0,ChIJP-gbMWyrQjQRv73wgOTzBt4,25.0268013,121.5432381
大安區,美甲,VeraHouse Nail Beauty SPA指藝美學,106台灣臺北市大安區忠孝東路三段251巷1弄23號2樓,5.0,310.0,ChIJ5YCiEAGrQjQRH8armBDfJng,25.0420847,121.5428204
大安區,美甲,Zona Nailart 大安美甲店 專業手部美甲｜台北美甲｜足部美甲｜手足保養｜無痛除毛｜當日預約請來電洽詢,106台灣臺北市大安區雲和街72巷1-1號,4.9,133.0,ChIJVcbNXherQjQRc8Vt2C5mUv0,25.023389899999998,121.5300708
大安區,美甲,Garden Nail 花園美甲,10687台灣臺北市大安區仁愛路四段68號10號樓之4,5.0,47.0,ChIJW9P030qrQjQR5DxoKxWjFjw,25.0375049,121.54783839999999
大安區,美甲,Endless nail美甲/Men’s Manicure/外泌體育髮/美睫/Manicure/指甲油nail polish,106台灣臺北市大安區敦化南路二段11巷7號1樓,4.9,100.0,ChIJe2Gaaj6nQjQRRpS3cql6JzE,25.032625799999998,121.54967400000001
大安區,美甲,BRILLANT NAIL SALON 布麗昂美甲沙龍 大安區美甲推薦 ネイルサロン,106台灣臺北市大安區信義路四段265巷23號,5.0,37.0,ChIJuUXJbDmrQjQRNgBAkvNSqQE,25.0343347,121.55502539999999
大安區,美甲,手冊美甲 Volume nail｜大安師大店｜師大美甲｜大安美甲,106台灣臺北市大安區泰順街40巷15號,4.9,551.0,ChIJvXIOk9KpQjQRmAzclBwlBwM,25.0243793,121.53035659999999
大安區,美甲,Hao Hao好好美室 /美甲/美容/美睫/Beauty Studio 台北大安,106692台灣臺北市大安區信義路四段24號2樓,5.0,68.0,ChIJdX5Nuu0DaDQRex4tJL2FHYo,25.0331571,121.54449579999999
大安區,美甲,舒宣雅美甲.矯正工作室,106台灣臺北市大安區忠孝東路三段305號9F之4,5.0,549.0,ChIJ_2KIgW2rQjQRV_-kFp80JpY,25.0418985,121.54352159999999
大安區,美甲,布拉藝術美甲 復興店,106台灣臺北市大安區忠孝東路四段2號五樓之五,4.9,409.0,ChIJ3X5em3erQjQRt4avIyMRNoQ,25.0413802,121.54395099999999
大安區,美甲,Shining art Nails Studio 閃亮美甲,106台灣臺北市大安區通化街39巷50弄75號,5.0,45.0,ChIJFRrfyFirQjQRulHg5U6dPcM,25.029072799999998,121.55507119999999
大安區,美甲,Yu.N Nail Studio｜東區美甲｜國父紀念館美甲｜大安區美甲,10696台灣臺北市大安區仁愛路四段425號4樓,5.0,66.0,ChIJITx-S8irQjQR5xyZY6fuWI4,25.0380812,121.5565225
大安區,美甲,握手手美甲工作室 Wo.Studio - 台北古亭輕奢美甲 / 小班制美甲課程 / 台電大樓 / 師大 / 公館商圈,106台灣台北市大安区罗斯福路三段61號6樓,5.0,359.0,ChIJCUj1_5apQjQRYYA1Py9SG-s,25.023055799999998,121.5258568
大安區,美甲,喬米時尚美學大安店 平價除毛/美甲/美睫/臉部保養,106台灣臺北市大安區大安路一段98號4樓,4.9,405.0,ChIJJS88TdmpQjQRH5FpB98a3A4,25.040492699999998,121.54592430000001
大安區,美甲,小私房美甲沙龍 Belle M. Nail Salon,106台灣台北市大安区安东街50-5號2樓,5.0,26.0,ChIJsXTMUdqrQjQR1uuX0drrUx0,25.0427786,121.5424767
大安區,美甲,弎倪美學 美甲|美睫|手足保養|霧眉,106台灣臺北市大安區敦化南路一段270巷12-1號1樓,5.0,312.0,ChIJD5Z2Ba6rQjQRqwqWKLfBMQU,25.038893700000003,121.54776040000002
大安區,美甲,女巫魔鏡指甲設計 - 光療指甲 專業 修剪 卸甲 指緣基礎保養 手部保養 足部深層保養 Jo Malone手部深層保養 優質 評價 高CP值 優惠 美甲設計 凝膠指甲 指甲彩繪 美甲款式,106台灣臺北市大安區安和路一段141巷13號,4.9,97.0,ChIJyT-isn2pQjQR-l4lm2qgnj4,25.033953099999998,121.553204
大安區,美甲,Painted Nail Salon 東區美甲沙龍,106台灣臺北市大安區延吉街138巷6號1樓B室,4.8,235.0,ChIJ-QE9BsarQjQRwUQugU5lhF8,25.0399624,121.55436250000001
大安區,美甲,Cloudia Nails 小雲時尚美甲/美睫/紋繡-師大店,106台灣臺北市大安區師大路119號B1,4.9,161.0,ChIJlX2KgFCpQjQR1t00K1DxhKk,25.022063300000003,121.5284051
大安區,美甲,Violanail 光復店 | 穿戴甲販賣 | 快速美甲 | 台北美甲推薦 | 東區美甲 | 美睫 | 甲片延甲,106台灣台北市大安区光复南路200巷32號1樓,4.7,101.0,ChIJv94pjLkDaDQRDRroR9uP0iA,25.042081399999997,121.55599730000002
大安區,美甲,OohLa Nail Studio 美甲沙龍,106台灣臺北市大安區忠孝東路四段76號8樓,4.9,65.0,ChIJCxzSgdqrQjQR6aB7s9TTYMI,25.041390999999997,121.54576299999998
大安區,美甲,小個Tiny nail studio,106台灣臺北市大安區大安路一段31巷9號,4.9,33.0,ChIJN9I2QDurQjQRlXNLOsm1tzs,25.0441306,121.54668919999997
大安區,美甲,SEE FUN美甲/美睫/按摩/紋繡,106台灣臺北市大安區和平東路二段201號4樓,5.0,88.0,ChIJ5dIFpd6rQjQRKVXDWiKvQkM,25.025245800000004,121.54233359999999
大安區,美甲,諾瑪美苑 NoMad Salon ｜美甲·美睫·手足保養·精油按摩·靈氣頌缽療癒,106007台灣臺北市大安區金華街223-1號3樓,5.0,69.0,ChIJacxiwjWpQjQRTRg8KukIaVk,25.02988,121.5292115
大安區,美甲,H.O.M Nails Salon晨希美甲美睫 有健康的基底才有永恆的美麗！只想給妳最信任的服務最新的技術！,106台灣臺北市大安區信義路四段341號10樓-2,5.0,32.0,ChIJAbHgEB-rQjQRksIjPxNc-zE,25.0333473,121.5567736
大安區,美甲,El Amor 美甲美睫紋繡沙龍,106台灣臺北市大安區敦化南路一段161巷43號,4.8,574.0,ChIJ-RA79sSrQjQRuHA9W5nwhGI,25.0436007,121.55126119999998
大安區,美甲,Two專屬,10654台灣臺北市大安區忠孝東路三段303號10號樓 10樓-10,4.8,217.0,ChIJfaAjRsOrQjQRD5rBFlJxWm0,25.041828499999998,121.5434291
大安區,美甲,S+ NAIL 台北 美甲熱蠟美睫-材料批發-全科班-教學-證照考試-台北美甲教學推薦(台北旗艦館),106台灣臺北市大安區忠孝東路四段155號4樓之1,5.0,1869.0,ChIJySmUIIqrQjQR2s-2zd4ZCyM,25.0417459,121.55001099999998
大安區,美甲,小日指美甲little day nail art-台北大安東區忠孝敦化 推薦平價美甲光療 手部足部光療凝膠單色造型 韓系日系簡約美甲 2026美甲造型 上班族小資族美甲造型 高cp值,106台灣臺北市大安區忠孝東路四段233號9樓,4.9,18.0,ChIJ5W5UqV-rQjQRFBLeHWj1Vak,25.041681,121.55346600000001
大安區,美甲,CoCo戀指舖,106台灣臺北市大安區忠孝東路四段181巷35弄10號2樓,5.0,70.0,ChIJC46XO4qrQjQRt7l8vllT3K8,25.043867499999998,121.55137040000001
大安區,美甲,Abeja Reina 艾貝卡美甲美學,106台灣臺北市大安區信義路四段六號14樓之4,5.0,32.0,ChIJVY8MzemrQjQRnQLLFlyaN2s,25.0327926,121.5454975
大安區,美甲,指尖的花朵美甲工作室-凝膠指甲/睫毛管理/穿戴甲模土訂製/lashlift,106台灣臺北市大安區通化街19巷5號1樓,5.0,31.0,ChIJxxuks2irQjQRMsAEvje7NA8,25.0317765,121.5546008
大安區,美甲,H.A.Nail國際美甲美睫,106台灣臺北市大安區永康街34-5號,4.7,117.0,ChIJKx70ROapQjQRTPZAUrNfuIs,25.029903899999997,121.52947640000001
大安區,美甲,粉艾妮美甲沙龍古亭店,106台灣臺北市大安區和平東路一段13號7樓,4.9,199.0,ChIJ5fjYizGpQjQRroNLy_T1FnQ,25.0272959,121.522684
大安區,美甲,CPC FLORA·美甲·美睫·美容·霧眉·除毛·美學 （信義安和）,106台灣臺北市大安區通化街120巷11號1樓,4.9,165.0,ChIJv0enZ9SpQjQRNqb7EkTNJm8,25.029513299999998,121.55357269999999
大安區,美甲,Nail Nail大安店-台北市大安區/台北市東區/美甲沙龍/手足保養/光療凝膠/指甲造型/指甲彩繪/手足按摩/肩頸按摩,106台灣臺北市大安區大安路一段1段83巷5號1樓之3,4.7,176.0,ChIJF-QZSj2rQjQRoSGr3qIL9kU,25.0410199,121.54668300000002
大安區,美甲,蜜斯緹(MISTY99)專業美甲美睫沙龍,106台灣臺北市大安區大安路一段52巷30號,4.8,49.0,ChIJKw4cXdqrQjQRhF3pLA4K9ak,25.042979799999998,121.54496449999999
大安區,美甲,小美CNI-N-Nails美甲 藝術指甲沙龍,106台灣臺北市大安區市民大道三段286號1F,4.7,212.0,ChIJCfDCQQOrQjQR4p16jvGSQhg,25.044529999999998,121.54280639999999
大安區,美甲,F/A TAIPEI RENAI “Eyelash/Nails/Facial/Waxing”,106台灣臺北市大安區仁愛路四段425號,4.8,810.0,ChIJVdV7MMSrQjQR1Ih95-l6_1M,25.0380812,121.5565225
大安區,美甲,N PLUS - 美甲美睫美眉,106台灣台北市大安区大安路一段65號4樓之5,5.0,242.0,ChIJW6kDVu-rQjQRp2bz87nv1yo,25.042554900000003,121.5462786
大安區,美甲,指尖蒔光 Sowing Light Nails,"1樓, 小林髮廊內No. 137號大安路二段大安區臺北市台灣 106",5.0,91.0,ChIJidTeQtOrQjQRxfl5c2db87I,25.0286063,121.5461381
大安區,美甲,LM-Emma nails 美甲工坊 師大 公館 大安區,106台灣臺北市大安區雲和街75巷10號,4.8,275.0,ChIJAfyiVpipQjQRzemyr0nugPg,25.024262999999998,121.53027650000001
大安區,美甲,VVN Nail Design 台北東區｜藝術美甲工作室 近明耀百貨 忠孝敦化 卸甲 手部保養 凝膠 光療 美甲,106台灣臺北市大安區忠孝東路四段155號12樓之4,5.0,196.0,ChIJtx2FlkirQjQReKFGO43jq7g,25.0417426,121.5500104
大安區,美甲,Color Region 大安信義店 - 凝膠指甲 / 手足保養 / 睫毛嫁接 / 凝膠美甲教學，預約制/不接受當天預約，預約請加 LINE: @color_region_a13 台北美甲 東區美甲 信義美甲 / 捷運國父紀念館站 / 大巨蛋旁,106台灣台北市大安区忠孝东路四段299號四樓之一,4.9,196.0,ChIJfy_SPX6rQjQRb7JrOrszPF0,25.041614,121.55532
大安區,美甲,Feza EyeSalon Sogo忠孝店 - 美睫｜美甲｜光療｜嫁接睫毛,106台灣臺北市大安區忠孝東路四段45號9樓,4.9,168.0,ChIJqTI_HI2rQjQRtQDrEzYyKXQ,25.042008799999998,121.5448114
大安區,美甲,Lady Princess Nails(大安),106台灣臺北市大安區通化街123巷9號1樓,4.9,41.0,ChIJja2y-gqrQjQRcS1rZtOSaes,25.029244499999997,121.5544482
大安區,美甲,Vennica Nails美甲工作室,106台灣台北市大安区富阳街99號1樓,4.3,52.0,ChIJbcOGADGqQjQR7TREJOlYbtU,25.0199155,121.5567912
大安區,美甲,Luna Marine美睫,"三樓之9, No. 二號忠孝東路四段大安區臺北市台灣 106",5.0,209.0,ChIJJ0wesdqrQjQRNmJA2HoQiqY,25.041359699999997,121.5439223
大安區,美甲,Rosé 美甲 - 美睫,106台灣臺北市大安區龍泉街74號,4.8,102.0,ChIJFbiYhxqpQjQRV7oqtD3ZPNU,25.023295599999997,121.52927480000001
大安區,美甲,日安美甲,106台灣臺北市大安區忠孝東路四段112號三樓之8,4.4,59.0,ChIJJ6Ywn9qrQjQR3DD1414ghAw,25.041304999999998,121.54687559999999
大安區,美甲,Winnie美學 東區美甲/日式無痛除毛－台北 美甲｜日式除毛｜無痛除毛｜足部保養｜手足保養｜私密處除毛｜小腿除毛｜腋下除毛 推薦,"5樓, No. 133-1號復興南路一段大安區臺北市台灣 106",4.9,143.0,ChIJryvTQ9yrQjQR6lHtC3vZGCk,25.042765,121.54420400000001
大安區,美甲,台北東區美甲熱蠟美睫材料批發,106台灣臺北市大安區忠孝東路四段155號9樓之5,5.0,168.0,ChIJ_w5DWrSrQjQRb6ebDjGGKpw,25.0417426,121.5500104
大安區,美甲,東京輕美學 美甲 美睫 手足保養 一站式美甲 水晶指甲,106台灣臺北市大安區忠孝東路四段162號9樓,4.9,144.0,ChIJYSlElEWrQjQRRzGCm8vsqcc,25.041276699999997,121.5502936
大安區,美甲,GOYA beauty韓式概念美學館 美容水光肌/睫毛管理/紋綉,106台灣臺北市大安區信義路四段25號5樓之2,4.8,61.0,ChIJ8ap_jbqrQjQRRm9A4ORumxk,25.033629200000004,121.5446683
大安區,美睫,Nude el Salón 日式美睫 嫁接睫毛 東區美睫推薦,106台灣臺北市大安區仁愛路四段68號,5.0,194.0,ChIJYTYkoAWrQjQRZEGNMDKb8qs,25.037527299999997,121.5477466
大安區,美睫,ABA.Lash.Tattoo 霧眉飄霧眉飄眉 紋繡美睫,10691台灣臺北市大安區忠孝東路四段49巷4弄16號3F之5,5.0,2790.0,ChIJO5keotCrQjQRJX9D49j7sow,25.042282399999998,121.5457032
大安區,美睫,Moi · 我的美學室- 美睫|熱蠟|睫眉管理|科技育髮,106台灣台北市大安区信义路三段202號10樓,5.0,240.0,ChIJXRfiZNOrQjQRipx8HtGPaFU,25.033158099999998,121.54329449999999
大安區,美睫,艾美睫舍時尚紋繡美睫美學,106台灣台北市大安区信义路四段30巷58之1號2樓,4.9,291.0,ChIJ-aPkZcarQjQRlCZCpE27Opk,25.0315692,121.5445573
大安區,美睫,Lash Code Taipei Flagship Store 美睫沙龍 Eyelash Boutique Lash Extensions,106台灣台北市大安区忠孝东路四段51-2號3樓,5.0,220.0,ChIJs7x1ESWrQjQRA_wsPBEdYLk,25.041802,121.545393
大安區,美睫,Ms.brow 日式美睫專門店,106台灣臺北市大安區忠孝東路三段303號10號樓之7,4.9,346.0,ChIJoZI-8M6rQjQRi_ukTwmAfyE,25.041828499999998,121.5434291
大安區,美睫,THREEÉ 仨室｜東區霧眉｜睫毛管理｜美睫｜美甲｜熱蠟除毛,106台灣臺北市大安區忠孝東路四段102號,5.0,122.0,ChIJR6cGmh2pQjQRSaaKhkf8pfU,25.041372,121.546596
大安區,美睫,輕奢韓式紋綉美學｜美甲｜美睫｜採耳｜皮膚管理｜eyebrow｜ Eyeliner ｜Lip,106台灣臺北市大安區大安路一段31巷5號一樓,4.9,303.0,ChIJZ_gOR7GrQjQRMI9fjz_K-y8,25.044150199999997,121.5465191
大安區,美睫,睫晞 Nail Jessie 「美甲 美睫 睫毛管理 紋繡 除毛」,106台灣臺北市大安區安和路二段171巷3號,4.5,70.0,ChIJm4pV6TKqQjQRIZXHe5guZC0,25.0281016,121.5502358
大安區,美睫,WINNIE 靚眼美睫｜唇眉設計｜臉部保養,106台灣台北市大安区忠孝东路四段231號10樓之2,5.0,256.0,ChIJpYQPE92rQjQRXUrezHHKvdU,25.041683499999998,121.55318529999998
大安區,美睫,儷人SPA．美甲．美睫．半永久紋綉｜科技大樓,"2F., NO.259, Sec, 和平東路二段大安區臺北市台灣 106",4.8,80.0,ChIJKwJLDnOrQjQRdE9g_SnlS2Y,25.024879300000002,121.5438561
大安區,美睫,Lash Maker 台北市東區日式美睫 舒適接睫毛,106台灣台北市大安区光复南路72巷23弄48號三樓,5.0,220.0,ChIJ9R2linOrQjQRwW-NuKYNMXc,25.044385199999997,121.5558349
大安區,美睫,魔法美睫紋繡學院,106台灣臺北市大安區和平東路二段279號5樓,5.0,258.0,ChIJjUd9Dy6qQjQRmt1RuPLzQoA,25.0250408,121.54435049999998
大安區,美睫,禾喬時尚美學/已營業18年/台北美睫/霧眉/絲霧眉/飄眉/野生眉/紋眼線/霧唇/接睫毛/台北東區,106台灣臺北市大安區忠孝東路四段248巷6號1樓,4.9,176.0,ChIJHX3Md8arQjQRNlW9sXoE4ww,25.040687,121.55399759999999
大安區,美睫,minimi日本睫毛沙龍,106台灣臺北市大安區仁愛路三段143巷52號台灣 1 樓,5.0,346.0,ChIJscb3ytCrQjQRo_rVUHzkkqk,25.0405965,121.54298999999999
大安區,美睫,Q.Dore 製妍所 ｜Led光固美睫·美甲·美白淨齒·睫毛管理·野生眉雕·霧眉·半永久紋繡,106台灣臺北市大安區忠孝東路四段211號9號樓之2,5.0,80.0,ChIJEz4AW1atQjQR48XUe83-3dc,25.041678899999997,121.5520933
大安區,美睫,好日子眉顏所 - 霧眉/美睫專科 - 台北大安店,106台灣臺北市大安區復興南路二段11-1號12樓,5.0,15.0,ChIJadeI1lqrQjQRkACx5zZXbbo,25.0326021,121.54386989999999
大安區,美睫,Mood Lab睫毛管理｜野生眉｜霧唇｜美甲｜科技育髮｜霧眉｜機器飄眉｜髮際線紋髮｜眉毛除色｜眼線｜粉嫩術｜肌膚管理｜ 大安區美甲｜美式整骨,106台灣臺北市大安區信義路四段24號,5.0,185.0,ChIJuX16P02rQjQRsvlIlj8sE44,25.0331571,121.54449579999999
大安區,美睫,睫霓時尚專業美學,106台灣臺北市大安區忠孝東路四段67之6號7號樓之8,4.9,104.0,ChIJzfVFkdqrQjQRMML4uzPxwdI,25.0417675,121.546353
大安區,美睫,Sparkle專業美睫店 東區美睫,106台灣臺北市大安區忠孝東路四段112號六樓之10,5.0,59.0,ChIJQeU4n9qrQjQRhgL-O5ahRG4,25.041364,121.546893
大安區,美睫,耀眼美人時尚美顏館《美睫｜紋繡｜除毛｜蘊髮》,106台灣台北市大安区敦化南路1段200號凤凰大厦3樓之2,5.0,73.0,ChIJ82wrE8WrQjQR9qf_B9pqPRY,25.0421147,121.5485113
大安區,美睫,SEASON Tokyo 日本專業美睫沙龍 敦化店 LED光固美睫/ 嫁接睫毛 / 俏睫術 / 絢睫術/野生眉 / 眉型設計 / 熱蠟修眉 / 課程教學,106台灣臺北市大安區忠孝東路四段183號五樓之4,4.9,148.0,ChIJg0TwL8WrQjQRtK1xlk18ihs,25.0417138,121.5509032
大安區,美睫,雅沐美顏工作室 - 台北 大安 優質美容工作室推薦 修眉設計首選 精油按摩好評 紋眉定妝 高CP值 專業川式採耳 評價 臉部美容保養 芳療筋絡舒壓 極致紋繡美學 眉型設計 皮膚基礎保養 日式美睫 凝膠指甲 霧眉 嘟嘟唇 飄眉 改眉,106台灣臺北市大安區師大路105巷15號1樓,4.9,55.0,ChIJ8w1MWJ6pQjQRyNNEBDju78M,25.022586699999998,121.5291451
大安區,美睫,【完美主義美學 perfectionist】,106台灣臺北市大安區信義路四段337號10樓,5.0,138.0,ChIJ_SS7qzerQjQRjq8G9CDN850,25.0334459,121.5563648
大安區,美睫,小姐姐接睫毛,106台灣臺北市大安區忠孝東路四段183號10樓之8,5.0,135.0,ChIJOwTrkyarQjQR9oGWdn26vgE,25.042152899999998,121.55078290000002
大安區,美睫,Candy茲茲美睫美學,106台灣臺北市大安區忠孝東路四段49巷4弄16號 10號樓-3,4.9,149.0,ChIJQ353iNqrQjQRdXRvpe66a18,25.0421406,121.54566270000001
大安區,美睫,S.Yin eyelash 馨尹專業日式美睫 台北東區 忠孝復興,106台灣臺北市大安區復興南路一段206號11樓-3,5.0,61.0,ChIJyboEUJirQjQRw7Lx4qaOl0U,25.039494599999998,121.54350280000001
大安區,美睫,小心姬 日式美睫 紋繡,106台灣臺北市大安區忠孝東路四段76號,5.0,80.0,ChIJ4Ye44QGrQjQRIZVyOz8XMyY,25.0413909,121.54576309999999
大安區,美睫,巧雪美甲美睫,106台灣臺北市大安區樂業街100號,5.0,37.0,ChIJOaxAXVSrQjQRWUB3WZOAEN4,25.021257499999997,121.55143629999999
大安區,美睫,Ivy's美睫殿堂,106台灣臺北市大安區安和路一段11號8 樓,5.0,37.0,ChIJJ4X0RMWrQjQRa6e4LIo3XV0,25.039716199999997,121.54982729999999
大安區,美睫,NJ studio美甲美睫工作室,106台灣臺北市大安區復興南路一段107巷17號 3號樓之1,5.0,13.0,ChIJHzHkpGOrQjQR98FQvNZJlT0,25.0437187,121.54507509999999
大安區,美睫,植睫秀,106台灣臺北市大安區敦化南路1段218號5樓,4.9,139.0,ChIJMV3hatCrQjQR8gsNrkW0jUc,25.0412076,121.54847749999999
大安區,美睫,D.N.BEAUTY霧眉/霧唇/髮際線/美睫/角蛋白/教學/粉嫩,106台灣臺北市大安區復興南路一段135巷27號9號樓之4,4.9,62.0,ChIJr4cj39apQjQRgSdBAF8Z1QE,25.042827199999998,121.54547489999999
大安區,美睫,紅美甲美睫,106台灣臺北市大安區仁愛路四段345巷4弄24號,5.0,24.0,ChIJvfYhac-rQjQR-UYs-NLcawk,25.0388244,121.5523808
大安區,美睫,Pink境•美學 /JM全方位美學苑 - 美睫｜霧眉｜美瞳線｜臉部保養｜美睫采耳創業課程｜國父紀念館站,106台灣台北市大安区延吉街112號7樓,5.0,50.0,ChIJQQA9BeWrQjQR7B1DVZuuoxE,25.040671200000002,121.55459309999999
大安區,髮廊,LOST N FOUND HAIR 釋放髮廊 ▍大安區髮廊,106台灣臺北市大安區大安路一段84巷13號2樓,4.8,274.0,ChIJA7byVYerQjQRdNnNE41vgRo,25.041068499999998,121.54536879999998
大安區,髮廊,HAIR GARDEN(提供單項洗髮),106台灣臺北市大安區安和路一段21巷14號1樓,4.8,307.0,ChIJgchsnc-rQjQR3QtDIZw-mXA,25.0393685,121.55120720000001
大安區,髮廊,DIAMOND Hair Salon,106台灣台北市大安区建国南路二段155號1樓,4.8,430.0,ChIJRayF2tmrQjQRhSKvo12hdK4,25.02864,121.5381709
大安區,髮廊,Sinliya Hair Salon,106台灣臺北市大安區敦化南路一段238巷1號,4.9,701.0,ChIJi-upJGGrQjQR49Z-p7PygwY,25.0402223,121.54788429999999
大安區,髮廊,A-SQUARE HAIR SALON台北頂級美髪沙廊,106台灣臺北市大安區仁愛路四段105巷6號1樓,4.7,247.0,ChIJf0B4ksWrQjQR2OUE0evF23Y,25.0384434,121.55013269999999
大安區,髮廊,D-dot Studio專業髮廊,106台灣臺北市大安區和平東路二段265巷28號,4.6,213.0,ChIJYyslGSyqQjQRDnrYVYPIPks,25.0262507,121.54393169999997
大安區,髮廊,SEASON5 HAIR STUDIO,106台灣臺北市大安區大安路一段83巷8號,4.7,312.0,ChIJ1YjGsjirQjQRUV5WkXrdbJc,25.040872699999998,121.54664259999998
大安區,髮廊,RA hair salon｜大安區髮廊,106台灣臺北市大安區復興南路二段151巷1號2樓,5.0,53.0,ChIJz0xtK_qrQjQRSN_3bsXLxJI,25.0285068,121.5438243
大安區,髮廊,MAGIC SALON魔髮沙龍,106台灣台北市大安区敦化南路1段192號2樓之五,4.7,197.0,ChIJB3iz39qrQjQRdzbKQHZQR2I,25.0424673,121.54841180000001
大安區,髮廊,KUAN SALON 寬 沙龍,106台灣臺北市大安區安和路一段127巷12號1樓,5.0,297.0,ChIJ0UjiSy6rQjQReAuD5OX94OE,25.0345548,121.5532192
大安區,髮廊,[JJ HAIR SALON 髮型沙龍],10691台灣臺北市大安區忠孝東路四段二號3樓之8,4.8,548.0,ChIJXf6x2NqrQjQR1YIdRi6Kcu8,25.0412833,121.5438514
大安區,髮廊,鉅洋髮藝 Gyoung Hair salon 通化店,106台灣臺北市大安區通化街26-4號2樓,4.8,1298.0,ChIJdS8G8ASrQjQRJyVE3t2aKQA,25.0315352,121.55417920000001
大安區,髮廊,ICONI HAIR SPACE 大安,106台灣臺北市大安區信義路四段51號2樓,4.9,58.0,ChIJV3Y0EcyrQjQRgpEm7WVyqRs,25.0335507,121.54495279999999
大安區,髮廊,靚都髮型 JING DU HAIR SALON,106台灣臺北市大安區通化街164號,4.9,248.0,ChIJMX9zUTOqQjQRPy2jwzoYs8s,25.028492999999997,121.5536122
大安區,髮廊,Onlyhan Hair Space,"號 1 樓, No. 11信義路四段265巷12弄大安區臺北市台灣 106",4.9,249.0,ChIJsWaWwg-rQjQRRGwTGrxHx_I,25.0345709,121.55406310000001
大安區,髮廊,濤墨幸福髮藝 Taomo Hair Salon ｜東區剪髮｜大安區髮廊推薦｜燙髮推薦｜層次剪髮,106233台灣臺北市大安區大安路一段31巷54-3號,5.0,149.0,ChIJI91jOymrQjQRYEssQgYbI6I,25.043914299999997,121.548013
大安區,髮廊,DV+hair,"106台灣臺北市大安區羅斯福路三段301號, 2",4.8,1388.0,ChIJ4bT0-oupQjQRDEABqzE65V8,25.0175439,121.53190409999999
大安區,髮廊,ROUND2 HAIR SALON 復興店,106台灣臺北市大安區忠孝東路四段46號5樓,4.9,525.0,ChIJDTvX4OarQjQRUx4MI_-LD30,25.041428699999997,121.54477670000001
大安區,髮廊,AN hair design,106台灣臺北市大安區忠孝東路112號四段 3樓之13,4.9,260.0,ChIJQeU4n9qrQjQRhhYqBZG8sUY,25.041330799999997,121.54688410000001
大安區,髮廊,W Infinity Hair Salon 古亭店,10646台灣臺北市大安區羅斯福路二段83-2號號2樓,4.9,792.0,ChIJY-3S9wmpQjQRI533XjElBlI,25.0256607,121.5238027
大安區,髮廊,DDC.studio salon 大安區推薦美髮,106台灣臺北市大安區新生南路三段76巷5-1號,5.0,249.0,ChIJ60GL1JKpQjQRlQINIp6WDQs,25.019057399999998,121.53329810000001
大安區,髮廊,DH Dream House Hair Salon | 髮型設計沙龍店,106台灣台北市大安区瑞安街278號1樓,5.0,90.0,ChIJwTq91CuqQjQRhuJmIpqMdyE,25.026058,121.53898500000001
大安區,髮廊,WLC HAIR SALON-推薦親子兒童剪髮,106台灣臺北市大安區復興南路二段160巷7號1樓,4.8,164.0,ChIJN4xKYnarQjQReLiYijlVThQ,25.027904799999998,121.5427229
大安區,髮廊,AN HAIR FACTORY,106台灣臺北市大安區雲和街70號,5.0,155.0,ChIJHVTY9IWpQjQRo5oA0XdrfaU,25.023456499999998,121.52989070000001
大安區,髮廊,ROUND2 HAIR SALON 大安店,106台灣臺北市大安區大安路一段83巷10號,4.9,236.0,ChIJq2nxAcmrQjQRBKTdT438pVQ,25.0408688,121.5467219
大安區,髮廊,Hair Port 1988-歐美漸層染 人氣髮廊 沙龍salon 男士Barber 韓系燙髮 女性女生短髮 頭皮護理頭皮spa 推薦,106台灣臺北市大安區仁愛路四段122巷42號,5.0,238.0,ChIJlS3QM8OrQjQRJtYq9O2FK7w,25.0348619,121.5502093
大安區,髮廊,ROUND2 HAIR SALON 忠孝1店,106台灣臺北市大安區忠孝東路四段124號4樓,4.9,1108.0,ChIJu5QWgtqrQjQRc7etTYFYQQc,25.041133199999997,121.54758890000001
